{"result":[{"name":"Tayaria (Rawang - Yee Huat Tyre & Battery Service)","address":"Jalan Setia Rawang 1, Taman Setia Rawang, 48000 Rawang, Selangor, Malaysia","phone":"03-6091 9926","country":"Malaysia","city":"Rawang","zipcode":"48000","latitude":3.302569,"longitude":101.600067,"website":"http://www.tayaria.com/","photos":[],"placeid":"ChIJU7AWIs9DzDERldIzAm6YrIc"},{"name":"M Tech Tyre Services (00167887-V)","address":"No. 12, Jalan Perdana 2/3A, Pandan Perdana, Wilayah Persekutuan, Pandan Perdana, 55300 Kuala Lumpur, Selangor, Malaysia","phone":"03-9285 6333","country":"Malaysia","city":"Kuala Lumpur","zipcode":"55300","latitude":3.1194949,"longitude":101.7421518,"website":"","photos":[],"placeid":"ChIJE32_jXo2zDER0gQB5Xn7giI"},{"name":"A - One Tyres","address":"Lot 1911B, Jalan Kpb 7, Kawasan Perindustrian Kampung Baru Balakong, 43300 Seri Kembangan, Selangor, Malaysia","phone":"03-8964 4838","country":"Malaysia","city":"Seri Kembangan","zipcode":"43300","latitude":3.026967899999999,"longitude":101.7407789,"website":"","photos":[],"placeid":"ChIJ-__2j83KzTER6dc-a9yt43A"},{"name":"Michelin (M) Sdn Bhd","address":"901, 9, Jalan SS 21/37, Damansara Utama, 47400 Petaling Jaya, Selangor, Malaysia","phone":"03-7680 3888","country":"Malaysia","city":"Petaling Jaya","zipcode":"47400","latitude":3.133359,"longitude":101.624358,"website":"http://www.michelin.com.my/","photos":[],"placeid":"ChIJxxUyfjVJzDERDs-iB6R5dZE"},{"name":"Bridgestone Tyre Sales (M) Sdn Bhd","address":"9th Floor, West Wing & Centrelink, 7, Wisma Consplant 2, Jalan SS16/1, 47500 Subang Jaya, Selangor, Malaysia","phone":"03-5621 0270","country":"Malaysia","city":"Subang Jaya","zipcode":"47500","latitude":3.0808687,"longitude":101.5835193,"website":"http://www.bridgestonetyre.com.my/","photos":[],"placeid":"ChIJyTlAW1pMzDERLgTPCon4Qd0"},{"name":"Wah Hoe Tyre Services","address":"No. 4, Jalan SS 26/11, Taman Mayang Jaya, 47301 Petaling Jaya, Selangor, Malaysia","phone":"03-7805 4676","country":"Malaysia","city":"Petaling Jaya","zipcode":"47301","latitude":3.115487,"longitude":101.6037059,"website":"http://www.tyrepricemalaysia.com.my/","photos":[],"placeid":"ChIJHQlR0qdOzDERVpfoRXePdxo"},{"name":"KH Tyre & Air Conditioning Services","address":"No. 1, Jalan B34/B, Off Jalan Bukit, Selangor, 40470 Shah Alam, Selangor, Malaysia","phone":"012-232 3210","country":"Malaysia","city":"Shah Alam","zipcode":"40470","latitude":3.009941,"longitude":101.511906,"website":"","photos":[],"placeid":"ChIJJ4UWP2-tzTERQvHftxaKvmg"},{"name":"Dunlop Tyre","address":"jalan Gumbag, Taman Cemerlang, 53100 Kuala Lumpur, Selangor, Malaysia","country":"Malaysia","city":"Kuala Lumpur","zipcode":"53100","latitude":3.2239374,"longitude":101.720442,"website":"","photos":[],"placeid":"ChIJLaoSjWQ4zDERAU-r4LE2guE"},{"name":"Ooi Tyre & Battery Accessories","address":"No. 37, Jalan 2A/6, Taman Setapak Indah, 53100, Kuala Lumpur, WP Kuala Lumpur, Taman Selayang Satu Pkns, 53300 Batu Caves, Selangor, Malaysia","phone":"03-4022 0262","country":"Malaysia","city":"Batu Caves","zipcode":"53300","latitude":3.2388723,"longitude":101.6747267,"website":"","photos":[],"placeid":"ChIJtZjyuQ9HzDERea9zsLV-KYs"},{"name":"JC Tyre PJ","address":"5, Jalan Nuri 7a, Seksyen 7 Kota Damansara, 47810 Petaling Jaya, Selangor, Malaysia","phone":"03-6157 1871","country":"Malaysia","city":"Petaling Jaya","zipcode":"47810","latitude":3.173177000000001,"longitude":101.576343,"website":"","photos":[],"placeid":"ChIJeXXLVnNPzDERNMe7wh_LdaQ"},{"name":"CYY Auto Tyre Service","address":"Jalan Usahawan 6, Taman Sri Rampai, 53300 Kuala Lumpur, Wilayah Persekutuan Kuala Lumpur, Malaysia","phone":"03-4141 6423","country":"Malaysia","city":"Kuala Lumpur","zipcode":"53300","latitude":3.1955879,"longitude":101.7261218,"website":"https://www.facebook.com/pages/CYY-AUTO-TYRE-Service/1416983955216150","photos":[],"placeid":"ChIJGUmeLRk4zDERIXJacQ3Dchs"},{"name":"Tyre & Auto Services Centre Sdn. Bhd","address":"20-2L, Jalan Pandan Indah 4/6, Pandan Indah, 55100 Kuala Lumpur, Wilayah Persekutuan Kuala Lumpur, Malaysia","country":"Malaysia","city":"Kuala Lumpur","zipcode":"55100","latitude":3.1305669,"longitude":101.7530466,"website":"","photos":[],"placeid":"ChIJB8Hvr4o2zDERC2VF3KJ1qTw"},{"name":"Good Service Tyre Sdn Bhd","address":"No. 19, Jalan UP 1/2, Taman Ukay Perdana, 68000 Ampang, Selangor, Malaysia","phone":"03-4105 0069","country":"Malaysia","city":"Ampang","zipcode":"68000","latitude":3.2071959,"longitude":101.7808359,"website":"","photos":[],"placeid":"ChIJ_UrTges5zDERE6A-LZDaiMw"},{"name":"Continental","address":"15, Jalan Bijih Timah 4, Taman Templer, 70200 Seremban, Negeri Sembilan, Malaysia","country":"Malaysia","city":"Seremban","zipcode":"70200","latitude":2.740039,"longitude":101.923751,"website":"","photos":[],"placeid":"ChIJJUlTfw3dzTER02mKAZAyz5U"},{"name":"Hua Hin Marketing Sdn Bhd","address":"318, Jalan Sungai Besi, Chan Sow Lin, 57100 Kuala Lumpur, Wilayah Persekutuan Kuala Lumpur, Malaysia","phone":"03-9223 8202","country":"Malaysia","city":"Kuala Lumpur","zipcode":"57100","latitude":3.1180406,"longitude":101.7085803,"website":"","photos":[],"placeid":"ChIJBRTrlWI1zDER-AbegMXXawk"},{"name":"Hong Lap Air-cond Auto Accessories","address":"81G, Jalan Bandar 1, Pusat Bandar Puchong, 47100, Puchong, Selangor, Pusat Bandar Puchong, 47100 Puchong, Selangor, Malaysia","phone":"03-5885 0116","country":"Malaysia","city":"Puchong","zipcode":"47100","latitude":3.0333092,"longitude":101.6169999,"website":"","photos":[],"placeid":"ChIJ-ZhIvqq0zTERttHGDMn9VOo"},{"name":"Otaigo Tyre Centre","address":"Taman Puncak Jalil, 51, Jalan PUJ 3/8, Bandar Putra Permai, 43300 Seri Kembangan, Selangor, Malaysia","phone":"013-531 6807","country":"Malaysia","city":"Seri Kembangan","zipcode":"43300","latitude":3.02021,"longitude":101.677093,"website":"","photos":[],"placeid":"ChIJxWuC6ju1zTERgtQDk4xQWeY"},{"name":"Emkay Tyre Auto Services Sdn. Bhd.","address":"2, Jalan BRP 1/6, Bukit Rahman Putra, 47000 Sungai Buloh, Selangor, Malaysia","phone":"03-6156 3645","country":"Malaysia","city":"Sungai Buloh","zipcode":"47000","latitude":3.2101716,"longitude":101.5624619,"website":"","photos":[],"placeid":"ChIJ-wuq4G1FzDER-Q28qI_b7a4"},{"name":"Citicars Auto & Tyre Servicing","address":"Sunway Pyramid Shopping Centre, Level B1, Pillar R14, No. 3, Jalan PJS11/15, 46150, Petaling Jaya, Selangor, Malaysia, Bandar Sunway, 46150 Petaling Jaya, Selangor, Malaysia","phone":"03-5611 0398","country":"Malaysia","city":"Petaling Jaya","zipcode":"46150","latitude":3.072991,"longitude":101.607681,"website":"","photos":[],"placeid":"ChIJi1IgcYdMzDERpQDUOnCSumM"},{"name":"Yap Paramount Tyre & Services","address":"43, Jalan 20/7, Taman Paramount, 46300 Petaling Jaya, Selangor, Malaysia","phone":"03-7874 6558","country":"Malaysia","city":"Petaling Jaya","zipcode":"46300","latitude":3.1099039,"longitude":101.626526,"website":"","photos":[],"placeid":"ChIJ5eyO0PxLzDERZK1y6ugSGaQ"},{"name":"GW Tyre Service","address":"No. 500, Batu 2 1/2, Jalan Kapar, Klang, Selangor, Batu 4, 41400 Klang, Selangor, Malaysia","phone":"03-3343 7285","country":"Malaysia","city":"Klang","zipcode":"41400","latitude":3.072681,"longitude":101.4086044,"website":"","photos":[],"placeid":"ChIJs7fl9vRUzDERwHjBv3SX-_o"},{"name":"Master Tyre & Battery Auto Service","address":"No. 27, Jalan SS 25/24, Taman Mayang, Petaling Jaya, 47301, Petaling Jaya, Selangor, Taman Mayang, 47301 Petaling Jaya, Selangor, Malaysia","phone":"03-7803 0352","country":"Malaysia","city":"Petaling Jaya","zipcode":"47301","latitude":3.113679999999999,"longitude":101.595,"website":"","photos":[],"placeid":"ChIJ3ZFacqBOzDERSlEObsgMYHs"},{"name":"Performance Tyre Malaysia-PTM","address":"53, 40000, Jalan Utas 15/7, Seksyen 15, 40200 Shah Alam, Selangor, Malaysia","phone":"012-235 1700","country":"Malaysia","city":"Shah Alam","zipcode":"40200","latitude":3.064410999999999,"longitude":101.539807,"website":"https://www.facebook.com/performancetyremalaysia/","photos":[],"placeid":"ChIJWXIzJm5NzDERGRo5bvlVHWk"},{"name":"Apex Tyre & Car Care","address":"2, Jalan PJS 11/20, Bandar Sunway, 46150 Petaling Jaya, Selangor, Malaysia","phone":"03-5635 7738","country":"Malaysia","city":"Petaling Jaya","zipcode":"46150","latitude":3.06812,"longitude":101.6023759,"website":"","photos":[],"placeid":"ChIJ63VYMI9MzDERlT9qIZwHPhQ"},{"name":"3 Star Tyre Services Sdn. Bhd.","address":"133, Persiaran Raja Muda Musa, Port Klang, 42000, Pelabuhan Klang, Selangor, Taman Sri Pelabuhan, 41100 Port Klang, Selangor, Malaysia","phone":"03-3168 8488","country":"Malaysia","city":"Port Klang","zipcode":"41100","latitude":3.026638999999999,"longitude":101.424535,"website":"","photos":[],"placeid":"ChIJodhZwUGrzTERzvN1g3becF8"},{"name":"Jam Tyre Battery & Marketing(M) Sdn Bhd","address":"PT6527, Jalan Paya Rumput, Selangor, Kawasan Perindustrian Banting, 42700 Banting, Selangor, Malaysia","phone":"03-3149 1817","country":"Malaysia","city":"Banting","zipcode":"42700","latitude":2.809509,"longitude":101.504155,"website":"","photos":[],"placeid":"ChIJ3aBFxaKkzTER7YjifaPBYik"},{"name":"Smart Tyre Auto Centre","address":"Jalan Sentul, Taman Sentul Jaya, 51000 Kuala Lumpur, Wilayah Persekutuan Kuala Lumpur, Malaysia","phone":"03-4042 8603","country":"Malaysia","city":"Kuala Lumpur","zipcode":"51000","latitude":3.1942062,"longitude":101.6910862,"website":"","photos":[],"placeid":"ChIJ-akQ-g5IzDERU1L4eGH1DYI"},{"name":"Tee 3 Auto & Tyre Service Sdn Bhd","address":"No. G-03, Jalan SM6, Taman Sunway Batu Caves, Batu Caves, 68100, Batu Caves, Selangor, Taman Sunway, 68100 Batu Caves, Selangor, Malaysia","phone":"03-6186 3833","country":"Malaysia","city":"Batu Caves","zipcode":"68100","latitude":3.2362968,"longitude":101.6921122,"website":"","photos":[],"placeid":"ChIJxTo-fnFHzDERq9zvrFKWkFo"},{"name":"E.T. Tyre & Battery Service","address":"No 87, Jalan SS 15/5A Subang Jaya, Subang Jaya, 47500, Petaling Jaya, Selangor, Ss 15, 47500 Subang Jaya, Selangor, Malaysia","phone":"03-5632 4102","country":"Malaysia","city":"Subang Jaya","zipcode":"47500","latitude":3.0816025,"longitude":101.5922824,"website":"","photos":[],"placeid":"ChIJ4evycF1MzDERsxINqolfZ7k"},{"name":"Heng Meng Tyre Car Care Services","address":"1022, Jalan Samudra Utama, Taman Samudra, Batu Caves, 68100, Batu Caves, Selangor, Taman Samudra, 68100 Batu Caves, Selangor, Malaysia","phone":"03-6189 8488","country":"Malaysia","city":"Batu Caves","zipcode":"68100","latitude":3.2329368,"longitude":101.6978981,"website":"","photos":[],"placeid":"ChIJ-edyrHlHzDERsxooPVFBVoc"},{"name":"Bridgestone AutoCare Tyre","address":"53, Jalan SS 18/1B, 47500, Subang Jaya, Selangor, Ss 18, 47500 Subang Jaya, Selangor, Malaysia","phone":"03-5633 1725","country":"Malaysia","city":"Subang Jaya","zipcode":"47500","latitude":3.0729241,"longitude":101.5839018,"website":"http://www.bridgestonetyre.com.my/buy/tyres/85-where-to-buy/bact/558-subang-jaya","photos":[],"placeid":"ChIJp_ZEyPdMzDERVPLlnyeR_Sw"},{"name":"Yu Leck Tyre Sdn. Bhd.","address":"No. 28, Jalan Rawang 11, Pusat Bandar Rawang, 48000, Rawang, Selangor, Bukit Rawang Jaya, 48000 Rawang, Selangor, Malaysia","phone":"03-6091 0928","country":"Malaysia","city":"Rawang","zipcode":"48000","latitude":3.337268,"longitude":101.58371,"website":"","photos":[],"placeid":"ChIJUyuFcFtCzDERkFLF9ZIrWKY"},{"name":"Poh Yap Tyre Auto Services","address":"30, Jalan 3/7, Bangi Perdana, 43650 Bandar Baru Bangi, Selangor, Malaysia","country":"Malaysia","city":"Bandar Baru Bangi","zipcode":"43650","latitude":2.947527,"longitude":101.7807271,"website":"","photos":[],"placeid":"ChIJa7mtd1zJzTEREdxaA9441gc"},{"name":"Toyo Tyre Sales And Marketing Malaysia Sdn Bhd","address":"No 1, Jalan Sungai Kayu Ara 32/38, Taman Perindustrian Berjaya, 40460 Shah Alam, Selangor, Malaysia","phone":"03-5740 8668","country":"Malaysia","city":"Shah Alam","zipcode":"40460","latitude":2.982488000000001,"longitude":101.511706,"website":"http://www.toyotires.com.my/","photos":[],"placeid":"ChIJa9sZlJGtzTERMnlwBXuF3zI"},{"name":"Kian Sing Tyre Service Sdn. Bhd.","address":"27-1, Lorong Az-zaharah B10/B, Bandar Puncak Alam, 42300 Kuala Selangor, Selangor, Malaysia","phone":"017-256 2121","country":"Malaysia","city":"Kuala Selangor","zipcode":"42300","latitude":3.2325534,"longitude":101.4141422,"website":"","photos":[],"placeid":"ChIJ640ZMJ5ZzDERoL-kr_zhK70"},{"name":"SSAW TYRE & RIM SDN BHD","address":"Jalan Tasik Prima 5/2, Prima Biz Hub, 47150 Puchong, Selangor, Malaysia","phone":"016-215 1599","country":"Malaysia","city":"Puchong","zipcode":"47150","latitude":2.9813643,"longitude":101.6023079,"website":"","photos":[],"placeid":"ChIJvYr7jpGzzTERy1dDEz-MEPg"},{"name":"RSR Tyre and Tuning Sdn Bhd","address":"Jalan Keramat, Kampung Datuk Keramat, 54000 Kuala Lumpur, Wilayah Persekutuan Kuala Lumpur, Malaysia","phone":"03-2691 0189","country":"Malaysia","city":"Kuala Lumpur","zipcode":"54000","latitude":3.167893,"longitude":101.72578,"website":"","photos":[],"placeid":"ChIJt031DsE3zDEREm0mOIBNrPM"},{"name":"Hiap Seng Tyre Sdn Bhd","address":"Kawasan Perindustrian Seri Kembangan, 43300 Seri Kembangan, Selangor, Malaysia","phone":"03-8942 2626","country":"Malaysia","city":"Seri Kembangan","zipcode":"43300","latitude":3.019442,"longitude":101.7100642,"website":"http://www.hiapsengtyre.com.my/","photos":[],"placeid":"ChIJa1Ta26bKzTERMF3ECEByTGc"},{"name":"E. T. Tyre Service","address":"No. 60, Jalan 14/48, Seksyen 14, 46100 Petaling Jaya, Selangor, Malaysia","phone":"03-7955 2337","country":"Malaysia","city":"Petaling Jaya","zipcode":"46100","latitude":3.096816,"longitude":101.629503,"website":"","photos":[],"placeid":"ChIJeVDxtu1LzDERDM9Jvkmx9qo"},{"name":"Piau Joon Tyre Two Sdn. Bhd.","address":"Lot 264, No. 38, Jalan Cheras Perdana, Batu 10 1/2, Jalan Cheras, 43200 Kajang, Selangor, Malaysia","phone":"03-9075 2837","country":"Malaysia","city":"Kajang","zipcode":"43200","latitude":3.049951,"longitude":101.771908,"website":"","photos":[],"placeid":"ChIJRe5gws80zDER54L3hEmu7mM"},{"name":"Zhi Sheng Tyre & Auto Service Centre","address":"Ground Floor, 23, Jalan Kenari 9, Bandar Puchong Jaya, 47170 Puchong, Selangor, Malaysia","phone":"010-545 8291","country":"Malaysia","city":"Puchong","zipcode":"47170","latitude":3.0472018,"longitude":101.6225095,"website":"","photos":[],"placeid":"ChIJh7T4xVtLzDERGpxGdXL7KS0"},{"name":"Bros Auto Care & Tyre Services","address":"The Strand, 2A, Jalan PJU 5/22, Kota Damansara, 47810 Petaling Jaya, Selangor, Malaysia","phone":"019-664 1974","country":"Malaysia","city":"Petaling Jaya","zipcode":"47810","latitude":3.1550675,"longitude":101.5921908,"website":"","photos":[],"placeid":"ChIJRW1lnR9PzDERpie7sa3ERC4"},{"name":"Racing Z Tyre Center","address":"Ground Floor, 1, Jalan Sungai Besi Indah 1/18, Taman Sungai Besi Indah, 43300 Seri Kembangan, Selangor, Malaysia","phone":"03-8941 3696","country":"Malaysia","city":"Seri Kembangan","zipcode":"43300","latitude":3.027809899999999,"longitude":101.7218819,"website":"","photos":[],"placeid":"ChIJkz4XZbHKzTERkoB3zMOWnR0"},{"name":"TS Tyre Autocare","address":"B3-1-0, Lorong Batu Nilam 3F, Bandar Bukit Tinggi, Selangor, Bandar Bukit Tinggi, 41200 Klang, Selangor, Malaysia","phone":"03-3319 3666","country":"Malaysia","city":"Klang","zipcode":"41200","latitude":3.010041199999999,"longitude":101.4371932,"website":"","photos":[],"placeid":"ChIJkblgTpyszTERSD9aaCdoY_w"},{"name":"Pang Tyres & Auto Services Centre","address":"22, Jalan 7/7A, Seksyen 7, Bandar Baru Bangi, Selangor, Seksyen 7 Bandar Baru Bangi, 43650 Bandar Baru Bangi, Selangor, Malaysia","phone":"03-8926 9068","country":"Malaysia","city":"Bandar Baru Bangi","zipcode":"43650","latitude":2.9690401,"longitude":101.7748262,"website":"","photos":[],"placeid":"ChIJZc8IjerLzTERA8VFMYm8MKY"},{"name":"Kim Heng Tyre","address":"80, Jalan PJS 11/7, Bandar Sunway, 47500 Subang Jaya, Selangor, Malaysia","phone":"03-5634 8866","country":"Malaysia","city":"Subang Jaya","zipcode":"47500","latitude":3.065582,"longitude":101.602409,"website":"","photos":[],"placeid":"ChIJm_Ywuo9MzDER0J096Fi7fI8"},{"name":"Tai Soon Tyre Service Centre - Kepong","address":"Jalan Metro Perdana Barat 14, Taman Indah Perdana, 52100 Kuala Lumpur, Wilayah Persekutuan Kuala Lumpur, Malaysia","phone":"012-311 1048","country":"Malaysia","city":"Kuala Lumpur","zipcode":"52100","latitude":3.214657,"longitude":101.6366738,"website":"","photos":[],"placeid":"ChIJQ1iiRmpGzDERO1VmsQ_8o_U"},{"name":"F1 Tyre Sdn. Bhd.","address":"No. 19, Jalan Bandar Rawang 15, Pusat Bandar Rawang, 48000, Rawang, Selangor, Pusat Bandar Rawang, 48000 Rawang, Selangor, Malaysia","phone":"03-6093 5563","country":"Malaysia","city":"Rawang","zipcode":"48000","latitude":3.320157,"longitude":101.577399,"website":"","photos":[],"placeid":"ChIJqd6XN1pCzDERZ_i5UKfR05E"},{"name":"Heng Hong Tyre (Subang) Sdn Bhd","address":"12, Jalan SP 4/2, Taman Subang Perdana, 40150 Shah Alam, Selangor, Malaysia","phone":"03-7832 7338","country":"Malaysia","city":"Shah Alam","zipcode":"40150","latitude":3.1493997,"longitude":101.5434414,"website":"","photos":[],"placeid":"ChIJdzKhPzROzDER7ayxQuEOFTw"},{"name":"Cny Tyre & Auto Service Sdn Bhd","address":"no 2 g k k 40150, MRC JSP Shah Alam Seksyen U5, 27, Jalan Bulan U5/Ca, Subang 2, 40150 Shah Alam, Selangor, Malaysia","phone":"03-7845 0919","country":"Malaysia","city":"Shah Alam","zipcode":"40150","latitude":3.1620645,"longitude":101.5478754,"website":"http://www.cnytyre.com.my/","photos":[],"placeid":"ChIJA6gyFINSzDERnExq2xAZqQc"},{"name":"Tadfa Auto Beauty Centre","address":"27, Jalan PBS 14/5, Taman Perindustrian Bukit Serdang, 43300 Seri Kembangan, Selangor, Malaysia","phone":"03-8941 0168","country":"Malaysia","city":"Seri Kembangan","zipcode":"43300","latitude":3.042385999999999,"longitude":101.699624,"website":"","photos":[],"placeid":"ChIJl2i5z65KzDERlh6CReUUfNA"},{"name":"Coltrac","address":"4, Jalan TSB 10, Taman Industri Sungai Buloh, 47000 Sungai Buloh, Selangor, Malaysia","phone":"03-6156 7890","country":"Malaysia","city":"Sungai Buloh","zipcode":"47000","latitude":3.167598,"longitude":101.57064,"website":"","photos":[],"placeid":"ChIJdSZi9wlPzDERJfQDpjW-VgE"},{"name":"Ban Loong Tyre & Auto Service Sdn Bhd","address":"Lot 14336, BHP Persiaran Tengku Ampuan 2, Persiaran Tengku Ampuan, Taman Perindustrian Subang Utama, 40400 Shah Alam, Selangor, Malaysia","phone":"03-5191 7816","country":"Malaysia","city":"Shah Alam","zipcode":"40400","latitude":3.042093,"longitude":101.545515,"website":"http://www.banloong.com.my/site/fast_redirect.php?url=2","photos":[],"placeid":"ChIJ6ZW5sUlNzDERNbp_kdHm_Ik"},{"name":"Silver Dove Tyre & Service Centre","address":"UEP Subang Jaya, 25, Jalan USJ 19/4a, Usj 19, 47620 Subang Jaya, Selangor, Malaysia","phone":"012-203 0098","country":"Malaysia","city":"Subang Jaya","zipcode":"47620","latitude":3.0307156,"longitude":101.5878074,"website":"https://www.facebook.com/sdtyre0606","photos":[],"placeid":"ChIJJwYkDDSzzTERSZI_OJtR-Qw"},{"name":"Skc Tyre","address":"17, Jalan Awf 3, Ampang Waterfront, 68000 Ampang, Selangor, Malaysia","phone":"03-4280 7300","country":"Malaysia","city":"Ampang","zipcode":"68000","latitude":3.1435779,"longitude":101.7753989,"website":"","photos":["CmRYAAAA3SzNwSshLu6AfDpvIAPOCqxLSXDfqBp5m0Cy3eG5jium8bCPf1g3DeySrDxsoWZC7lJNMQYRfqnV2hzO44nE8bU80fpJKkzL02zKNxM--fHzOzsFmL1R25fJy7Z51UvPEhAy8RXDxIHFQCf3efSByQGwGhQxxfA25wfM6U5WybzjdzFZ0qiEaw","CmRYAAAALpKb-EaWSpKS4jGu6B2HsvD-VnHBof3hGVfpsOVEaQzE0_DWxgfYymHI489s6ppzwCapyNG6Ubh5YPDt7kj4WLRqTDNhGMkG6oDjXFggxHnTo8RK7iNRWHV471DjQggsEhC9X2agt6itd4lJYhx_zZfjGhQPpxfT7anBo4uR-tNPm92k9EhVcA"],"placeid":"ChIJ1ZLoht02zDERXFIaArr0I3w"},{"name":"KLH Car & Tyre Services","address":"425, Batu 2 3/4, Jalan Ipoh, Taman Million, 51200 Kuala Lumpur, Wilayah Persekutuan Kuala Lumpur, Malaysia","phone":"03-4042 8608","country":"Malaysia","city":"Kuala Lumpur","zipcode":"51200","latitude":3.179663,"longitude":101.684302,"website":"","photos":["CmRYAAAA8p8yrddJcrjeIAJ38eB7fDzlw6mOJCk90n-dKjiIJTyAQ_wiBtj-inKZo2qalJjfNshz9dFrCZbTmFXFxFXSVdsvv97wT9Fu2hk8TOjKGE7c2YKi8SED9MbhemCnpaRoEhDOP8qf8DVdyTZtmVOOrPLdGhQ-QRzmXq-_dFwQy6iVwnBVXh_Ybw","CmRYAAAAGbBFuwfP1JfTpaUt226ah8BTGoskLgdz-XVRPDBEoMrNBZvf-LI4QTQ8JGJgXH2djBpt2inGyeAKV6aYl_fTGTjd0OSCBSDQgeAtIgdTyjrkHM06KHvukGuviNMJWAGpEhAeo5Y1JTfOcWO37e2G7Uw2GhSvCRn9b74jwzetGpGvm5GYa-kWww","CmRYAAAAX46N8Jaen0dXY7PXIVhqclc9KZ0sJ3r_8T1Q-MQvu4GuxXo2lLRygsRLQFlTeZrydp7E6XzgShAoogWQ6mkLqYMoOhbkARGKBS6AkUsNURJpajtK_mwfsuXcRJ-b18VgEhD7SRAqX73PqC2_cInM1ZttGhQHDUOwywK_GZfGYONU59LvWMX4qA","CmRYAAAAIgRLrG-Qzm4nqhri9ePLXg88aDuO-VQYnqA_bLwUQhnUQW-Hi7_xDGn1ye4MIBE593B-isVQnbXg-h6eGKmO08bcdIIOFBF3rd3sN2jJ387HD1Jt0UsvrORb-YFv60IYEhB3x38owQhnOT9Z1Wh6EtWMGhQcxS9nP2bIj8FqG-yAwiCzb6FXcQ","CmRYAAAA7FRgGhZhLMdziOj78PSkVx3EZ7o3mM51a03o9wBHva6qOdbGpWhLBPP8ULUaRbPQAOrtey_REeVfbLe5ReGp88Iy_DDaQJ6-m4WjiUS_0EjSBRt6lHGUNbLzgT0Vfxz8EhDq3eD7hE6_0VGm7CcwqW1hGhSvAX2kwmxYCHL5d0SwEt8SSfWQmg"],"placeid":"ChIJFS18GdxHzDERMFB2lmbZbmU"},{"name":"Bridgestone Kota Damansara (Tyrax Auto Sdn Bhd)","address":"Kota Damansara, 1-1, Jalan PJU 5/9, Dataran Sunway, Petaling Jaya, 47810, Petaling Jaya, Selangor, Dataran Sunway, 47810 Petaling Jaya, Selangor, Malaysia","phone":"03-6140 9313","country":"Malaysia","city":"Petaling Jaya","zipcode":"47810","latitude":3.1507253,"longitude":101.5924353,"website":"","photos":["CmRYAAAADkCIUykToB2wlFSDAH07_sz4Y8CaNH243VgBCC-KByOnyW7U96d0DAVxFWtTwMLzjDCjo28bkVAXsG-33HEAiEMoMxL0tOdAVa6XG0mJYfzxCQBSDnf4g5GVfV4QC28GEhBEz1dbH-ixnAQZMSFQZDuGGhSUNd7XFSRjKP6-TgzGfcrvSMe12g","CmRYAAAAKewfInZVY-fs5q1JB6pKuPebQ0zmzhKeqsvgV6hHz-p7FzqhVHcYtbd8nCnLpDJ41g3npWrXEmiMtBhzJzdK3q5QgtI8aZ6nOMvgoZ_vc8HlApsaoTqUQdxdvv4_aobMEhAa8OpMc5XtAmPwzV_xKef5GhTQqW3SoOT68vImgeg1oFLOUbiqbw","CmRYAAAAhB77FfLF3hkPBSvBpLl-SrPcxOk5jZ-GO1d5b2XfF_GiRbkT3D8WdQbaZLdcS9rz_dJdOhfRX3Bx30lLjaGf-nLcf4erdXc23QAhs4UxESFoQki34M6U7I0k39qwCitgEhB3VQW5dgDmnNGv7Oj2ECT2GhQlizqJuFrr_MsBo9fD5FnehduBCw","CmRYAAAAxuGPSWL7uelzdmdZthgOKEhVxKU2tDKrqudag2GIlipM_7izkeqjl1D01MRV7b0CCpMVzbojDwVFQg_3ZcY3neKIoh-wvsLzh_aF9V0sy1ciTo9etRfa3jcHZ9uQULumEhD76pLqQAEWH6jVmdd3XHqsGhT3dEmO2HAoJ84-nuHGRPAzLWK7Bw","CmRYAAAAirSMxgryyySswFiOymnUGJV419GY7PnTG1sjgQa8iAOWIPsQbRN9iVD1bV9-cINT0IgRl5MhCfI51IRSlELzm6UDD2msFqo9nMhwLd4Mn9MHYIHmjn9bsxpLL2w2Xix1EhCnolVG2kMxYzoMYVlgd_pmGhS6A-n2hzr2qxmEzHyuqmrpgJsXvg"],"placeid":"ChIJex3veuBOzDER81uk2Eibrh0"},{"name":"GR Racing Tyre & Service Sdn. Bhd.","address":"Jalan BRP 1/10a, Bukit Rahman Putra, 47000 Sungai Buloh, Selangor, Malaysia","phone":"03-6140 2493","country":"Malaysia","city":"Sungai Buloh","zipcode":"47000","latitude":3.2093852,"longitude":101.5626413,"website":"","photos":[],"placeid":"ChIJu5XcGnNFzDERTujlcwavQho"},{"name":"Bridgestone AutoCare Tyre (A division of Bridgestone Tyre Sales (M) Sdn. Bhd.)","address":"18G, Jalan Perubatan 2, Pandan Indah, Kuala Lumpur, 55100, Kuala Lumpur, WP Kuala Lumpur, Pandan Indah, 55100 Ampang Jaya, Selangor, Malaysia","phone":"03-4293 6633","country":"Malaysia","city":"Ampang Jaya","zipcode":"55100","latitude":3.1287066,"longitude":101.7509544,"website":"","photos":[],"placeid":"ChIJi8iqSmA2zDERlExX9CfT0ks"},{"name":"Kanson Tyre Sdn. Bhd.","address":"1, Lorong Perusahaan 1, Kawasan Industri Batu Caves, 68100 Batu Caves, Selangor, Malaysia","phone":"03-6188 8749","country":"Malaysia","city":"Batu Caves","zipcode":"68100","latitude":3.2348373,"longitude":101.6832371,"website":"","photos":[],"placeid":"ChIJhdbtWgtHzDERGWa9hUshtX8"},{"name":"Weng Heng Tyre & Auto Service","address":"53, Jalan BP 5, Bandar Bukit Puchong, 47100 Puchong, Selangor, Malaysia","phone":"03-8068 4375","country":"Malaysia","city":"Puchong","zipcode":"47100","latitude":2.984477,"longitude":101.6269839,"website":"","photos":[],"placeid":"ChIJr7pv4m-0zTERgY7uR8gdt3k"},{"name":"Twl Tyre & Services Sdn. Bhd.","address":"1, Jalan Ambong Kiri Satu, (Jln7) Kepong Baru, 52100 Kuala Lumpur, Kepong Baru, 52100 Kuala Lumpur, Federal Territory of Kuala Lumpur, Malaysia","phone":"03-6257 1938","country":"Malaysia","city":"Kuala Lumpur","zipcode":"52100","latitude":3.21055,"longitude":101.6475727,"website":"","photos":[],"placeid":"ChIJFUckezhGzDERCm9LjcVckAM"},{"name":"Yoon Soon Tyre Auto Service","address":"No. 12, Jalan SR 1/9 & Seksyen 9, Taman Serdang Raya, 43300 Seri Kembangan, Selangor, Malaysia","phone":"03-8948 6498","country":"Malaysia","city":"Seri Kembangan","zipcode":"43300","latitude":3.0463769,"longitude":101.704832,"website":"","photos":[],"placeid":"ChIJj3-2D6dKzDERqOiY1rih7lY"},{"name":"Piau Joon Tyre One Sdn. Bhd.","address":"2a, Jalan Desa Serdang 5, Serdang Jaya, 43300 Seri Kembangan, Selangor, Malaysia","phone":"03-8943 0059","country":"Malaysia","city":"Seri Kembangan","zipcode":"43300","latitude":3.011476,"longitude":101.722141,"website":"","photos":[],"placeid":"ChIJVQPcW5bKzTERllWidRg_muo"},{"name":"Piki Tyre Shop","address":"Jalan Besar, Taman Selayang Segar, 68100 Batu Caves, Selangor, Malaysia","phone":"017-385 4665","country":"Malaysia","city":"Batu Caves","zipcode":"68100","latitude":3.2366281,"longitude":101.6762768,"website":"","photos":["CmRYAAAAE7sril1uBMGnzvi1pxkFcR4rRCCG5WI44BU81IyM2vxdujZm-ztj2epgMEBtX-DroPBK3KjiXgCrsnTbhRef0l4pIOm9VyWdKzcS6a_Ay2qXXkPH3f6R1ZVEuMgkpEOHEhC3G6eze2dUiJBzKnJw2XTxGhQXaliCD4aO9PDj985dJjnPDLrOVA"],"placeid":"ChIJkQqQyN9GzDERIddM2LBYyag"},{"name":"Lbh Tyre Services Sdn. Bhd.","address":"No. 5, Jalan SS 21/1a, Damansara Utama, 47400 Petaling Jaya, Selangor, Malaysia","phone":"03-7710 1488","country":"Malaysia","city":"Petaling Jaya","zipcode":"47400","latitude":3.136775,"longitude":101.6210052,"website":"http://www.lbh.com.my/","photos":[],"placeid":"ChIJc7ndBDRJzDERA-hab97bMxg"},{"name":"Ban Loong Tyre & Auto Service Sdn Bhd","address":"1, Jalan USJ 7/3b, Usj 7, 47610 Subang Jaya, Selangor, Malaysia","phone":"03-5632 3040","country":"Malaysia","city":"Subang Jaya","zipcode":"47610","latitude":3.0481428,"longitude":101.5927901,"website":"http://www.banloong.com.my/site/fast_redirect.php?url=2","photos":["CmRYAAAAT2vaO8YY4NGhiEeheYvqsOpPXpky67zCA5sCRWGHMmp0ft8zQy62SL1Br8JxCnZV0ehHIMenVcEMo-0QHhwe9crX1QIDsKl5AJ7dQuUJqJM376Nz-cabxdxDgKoWWFYhEhALYu8vAmAGrpg-QNpc1kobGhTlsXBIjSZ5ykhgw_KjTywL5SoBnw"],"placeid":"ChIJUbgpXsdMzDER25vsUCIlKCk"},{"name":"Ls Tyre & Auto Services","address":"No. B08, Jalan 12/144A, Taman Bukit Cheras, Wilayah Persekutuan, Taman Bukit Cheras, 56000 Kuala Lumpur, Federal Territory of Kuala Lumpur, Malaysia","phone":"03-9100 3331","country":"Malaysia","city":"Kuala Lumpur","zipcode":"56000","latitude":3.069995,"longitude":101.748829,"website":"","photos":[],"placeid":"ChIJe7i0_AA1zDERzLwAkvsVqt4"},{"name":"Perkhidmatan Tayar Metromax Tyre Services","address":"2, Jalan 1/7, Taman Industri Selesa Jaya, 43300 Balakong, Selangor, Malaysia","phone":"03-8961 1860","country":"Malaysia","city":"Balakong","zipcode":"43300","latitude":3.01984,"longitude":101.741317,"website":"http://www.bridgestonetyre.com.my/","photos":[],"placeid":"ChIJ-Z55NtvKzTERVMT7_RKISCo"},{"name":"Citicars","address":"P17, Jln Perdana, Cyberjaya, 63000 Cyberjaya, Selangor, Malaysia","phone":"03-8325 1891","country":"Malaysia","city":"Cyberjaya","zipcode":"63000","latitude":2.922473499999999,"longitude":101.6514683,"website":"http://citicars.com.my/","photos":["CmRYAAAAjs4uhaUzyMocRpearymRw6RUFNuKC8So7b1Mdxt984fK8YQmFV8JWqMiTLU4pXcnxRSdh1xm868s4Nv8580FxP8tx-izw_L9r6YYWsfc3Z525uTmM0S8TQFcdJnR_cVyEhCn9DkYEp8xN1TFiNoS_88VGhRm2wMv_Qu2__a3irq67pmsXUs2BQ","CmRYAAAAB8V67-VrNdC98fvdhFRJSz6mCbnHStz87NFU5gdsjpdN2HaBR0Fk_s8IoO6K8rGCaRh4LSMVDZcRhhWaRGr2zhPwjzhyhcliUhVpCrnNIDT7BXS93dUGsPjFwEwUhrEZEhCQkW9LjTtxji_S8OO_qCC1GhTfTECDxWvfbNt2A_zoRlFlYBZewA"],"placeid":"ChIJu-VTFPu2zTERR9Qzq-vnNQk"},{"name":"KS Tyre pandan Indah","address":"1GM, Jalan Pandan Indah 4/34, Pandan Indah, 55100 Kuala Lumpur, Selangor, Malaysia","phone":"03-4291 4168","country":"Malaysia","city":"Kuala Lumpur","zipcode":"55100","latitude":3.133655,"longitude":101.7537809,"website":"https://www.facebook.com/kstyre/","photos":[],"placeid":"ChIJCQARovU2zDERFrtAbmnnkLM"},{"name":"Bridgestone AutoCare & Tyre","address":"43, Jalan Puteri 4/1, Bandar Puteri, 47100 Puchong, Selangor, Malaysia","phone":"03-8060 1122","country":"Malaysia","city":"Puchong","zipcode":"47100","latitude":3.02146,"longitude":101.614711,"website":"http://www.bridgestonetyre.com.my/","photos":[],"placeid":"ChIJWWmSFlWzzTERCRIyaMFI5oY"},{"name":"Kian Sing Tyre Service Sdn. Bhd.","address":"No. 19, Jalan Cecawi PSB 6/19A, Seksyen 6, Kota Damansara, Petaling Jaya, 47810, Petaling Jaya, Selangor, Kota Damansara, 47810 Petaling Jaya, Selangor, Malaysia","phone":"03-6157 2614","country":"Malaysia","city":"Petaling Jaya","zipcode":"47810","latitude":3.16767,"longitude":101.575,"website":"","photos":[],"placeid":"ChIJcTQ-3gZPzDER4Tx6NdDIQK8"},{"name":"KLH Perkhidmatan Tayar Car & Tyre Services","address":"425, Jalan Ipoh, 51200 Kuala Lumpur, Wilayah Persekutuan Kuala Lumpur, Malaysia","phone":"012-231 1252","country":"Malaysia","city":"Kuala Lumpur","zipcode":"51200","latitude":3.1796004,"longitude":101.6842412,"website":"","photos":[],"placeid":"ChIJ6ROAyxJIzDERm_YysRyqm9k"},{"name":"Thong Loon Tyre Battery","address":"Lot 4868 & 4869, Jalan SS 12/2, Ss 12, 47500 Subang Jaya, Selangor, Malaysia","phone":"03-5635 2008","country":"Malaysia","city":"Subang Jaya","zipcode":"47500","latitude":3.0738079,"longitude":101.597809,"website":"","photos":[],"placeid":"ChIJGbM_VWBMzDERZioh_lwg4Zc"},{"name":"HW Tyre And Auto Service","address":"Block D, Tanming Boulevard, No. 71-G, Jalan Meranti Jaya 3/1, Taman Meranti Jaya, 47120, Puchong, Selangor, Taman Meranti Jaya, 47120 Puchong, Selangor, Malaysia","phone":"03-5879 8257","country":"Malaysia","city":"Puchong","zipcode":"47120","latitude":2.9793149,"longitude":101.6105962,"website":"","photos":[],"placeid":"ChIJqSYZ84uzzTER7A_Mhb9eVi8"},{"name":"CarTech Tyre & Battery Service","address":"No.21, Jalan Serindit 2, Selangor, Bandar Puchong Jaya, 41700 Puchong, Selangor, Malaysia","phone":"03-5891 0878","country":"Malaysia","city":"Puchong","zipcode":"41700","latitude":3.0388688,"longitude":101.6238612,"website":"","photos":[],"placeid":"ChIJTa-JFFFLzDERd2m7fotWPUw"},{"name":"Chin Tat Tyre And Auto Service Network","address":"No.2, Jalan Apollo U5/189, Bandar Pingggiran Subang, Seksyen U5, Selangor, Bandar Pinggiran Subang, 40150 Shah Alam, Selangor, Malaysia","phone":"03-7848 3698","country":"Malaysia","city":"Shah Alam","zipcode":"40150","latitude":3.157613500000001,"longitude":101.5466523,"website":"","photos":[],"placeid":"ChIJC1VVGspPzDERFS130PLPcAA"},{"name":"Hup Seng Auto Tyre Service","address":"Jalan PU 7/3, Taman Puchong Utama, 47100 Puchong, Selangor, Malaysia","phone":"03-8065 1755","country":"Malaysia","city":"Puchong","zipcode":"47100","latitude":2.992420999999999,"longitude":101.6160199,"website":"","photos":["CmRYAAAAwYlqouOLXtcLs6hNnji2H6RgrrNbb5S6eSEfHVPZD5mljVUWpwJC29p7_hJOdekEpJzmvcIXtyPEJoLUPNFbM6WrNi_uWZd35-u_vlIrqdLxLUQNp98BY5X-rDUt2mdJEhDxAk1MDaELudQC0Px_YQDrGhRU_5jSliSNytVDEI9-HaHqZRZGdw","CmRYAAAAbeuFoZlAB2Sl4OVhKE9ME1i-2I2EJQrYRwGv551Z92i5DvTQmkcnFzAxBJk1160n8NeUcRvklVeBj1wX3TzTKuWZxZhVtLULFFpjNJhK_5fMLfFjQQde2gsHnUwrCwNoEhCOR2MRLdh3ovyzwDHJCaz3GhRIwSo0ZWUlPBOqNSHcDS8C9Icb8A"],"placeid":"ChIJu3uTfn-0zTERPePQT_eZ41c"},{"name":"YB Tyre Services Sdn. Bhd.","address":"32G, Jalan Pandan Indah 1/23c, Pandan Indah, 55100 Kuala Lumpur, Wilayah Persekutuan Kuala Lumpur, Malaysia","phone":"03-9274 9399","country":"Malaysia","city":"Kuala Lumpur","zipcode":"55100","latitude":3.1315718,"longitude":101.7514351,"website":"https://www.facebook.com/YBTyre/","photos":["CmRYAAAAGrNUolJoSu7CXLAnpGEhWfN0hUgsFJSzAQSFXyGMGOEaRpTEvMsXEBuZMWyylX7qvcjnHDBw-7mgcssAZ4OXbneBt5ngE9-ArB_J8MCoS1B-jQIfnIH3iMGM20Aoq2I-EhBlG0OU3SJOvLBCs0xOTPLcGhSS3808PoYGwVijeS6dUych9c6YDg","CmRYAAAAs0PEGNjHubkmJnyEH2v2BfGHYgw4IxnFwerd7UAFmv00YTlHBmmcpD1_9_u_V5mocJi-LUTQpYMa5uEdz7E8jk6zFcO6zEyfgjI7U4k2cPUS1U8fi0tQSKbrpY94uz5FEhAgSzCOKSkx3DQ63-wpOB0fGhQmhqx2zpCaeqQ1I4PlE8E28ZZL6Q","CmRYAAAAnbsbHMyEP5MQmQNCt-2CvvTSDaGLy6YMhllMRAApex3TIr1nasghQ5VwVd28cvvvPG2CgCEnCwEWpaLCQ0noxecgyVxAJHLzIjZZsrU5lGFaSW1GwTBzPD1iUri6X8kjEhDFZJbdg9ktu9-67U4wvnKRGhT1vhTPCtxQEpGuZz4ftmbPsGCmfA"],"placeid":"ChIJmeAM5V82zDERCZNB9QQVJ78"},{"name":"Bridgestone","address":"Taman United, 58200 Kuala Lumpur, Wilayah Persekutuan Kuala Lumpur, Malaysia","country":"Malaysia","city":"Kuala Lumpur","zipcode":"58200","latitude":3.0832674,"longitude":101.6710595,"website":"","photos":[],"placeid":"ChIJ_UM03E9KzDERT_JDYKmeuSg"},{"name":"E.T Desaria Tyre Services","address":"No. 2, Jalan PJS 5/4, Taman Desaria, 46000 Petaling Jaya, Selangor, Malaysia","phone":"03-7877 8113","country":"Malaysia","city":"Petaling Jaya","zipcode":"46000","latitude":3.0818779,"longitude":101.620594,"website":"","photos":[],"placeid":"ChIJP373ZIZLzDERE0uCbatbxOo"},{"name":"Kit Loong Tayaria Sdn Bhd","address":"No. 22, Jalan Penchala, 46050, Petaling Jaya, Selangor, Pjs 51, 46050 Petaling Jaya, Selangor, Malaysia","phone":"03-7782 2030","country":"Malaysia","city":"Petaling Jaya","zipcode":"46050","latitude":3.087033099999999,"longitude":101.6411461,"website":"http://www.kitloongtyre.com/passenger/retail.htm","photos":[],"placeid":"ChIJGdha5bxLzDERtSDOfWOLSHs"},{"name":"Weng Seng Auto Service & Tyre","address":"43000 27, Jalan Perdana 4 Taman Segar Perdana 43000 Kajang, Selangor. Kajang Selangor, Taman Segar Perdana, 43200 Cheras 9 Miles, Selangor, Malaysia","phone":"03-9074 1644","country":"Malaysia","city":"Cheras 9 Miles","zipcode":"43200","latitude":3.09144,"longitude":101.761,"website":"","photos":[],"placeid":"ChIJoW5cK0g0zDERatrr54TmadA"},{"name":"Lean Soon Tyre Sdn Bhd","address":"No. 13, Jalan SBC 5, Taman Sri Batu Caves, Batu Caves, 68100, Batu Caves, Selangor, Kawasan industrial Batu Caves, 68100 Batu Caves, Selangor, Malaysia","phone":"03-6185 6381","country":"Malaysia","city":"Batu Caves","zipcode":"68100","latitude":3.2336901,"longitude":101.6853036,"website":"","photos":[],"placeid":"ChIJEcuyw3RHzDERK2NDCRR3dEo"},{"name":"Emergency Tyre Service 24 Hours Kuala Lumpur","address":"Lorong Udang Pasir 2, Taman Sri Segambut, 52000 Kuala Lumpur, Wilayah Persekutuan Kuala Lumpur, Malaysia","phone":"012-692 2397","country":"Malaysia","city":"Kuala Lumpur","zipcode":"52000","latitude":3.193414,"longitude":101.656471,"website":"http://tayarkupancit.blogspot.my/","photos":["CmRXAAAAn2PFQLOyfFDS3TivJKMDSLK66ctsDqsw4w3B8s3_KcTekqt7UWmKSpsh2qFtOEQ7PUUrvzqXfW-RAw8Hj9vT6RvaOlnMqKKl2s_MaMX5q4Rg-5O3A6TamKatw6CQjTXfEhCk5u9TiyjDHEoRJD85AwwHGhSIG7_3SaDaVLIDSA55CAzLtXwiSQ","CmRXAAAAErve2TkhT6FzxFyjGAZe6jI2qDvegejEFwmqcIf_rSeewz3SqKt9P4mYSSVNYGQB5KTZS0Q8zhwqo1cM044ZQxKvP5sjsZ6xhn-zg56UIiu2zoP3i2ZHd-d8wjLt6IKbEhBdx_9to3k0lOwbM-2fSJh2GhSaYaAJK2eC-Ky51Tvr6Y2HMyhWag","CmRXAAAArMawrVU02yougZTOa97u8sm2-r0Gbzu5SEVbBD_z1_uJ7SXX6sL0N91l-MvRGK-FMHTdagIKvfVWcbu7fqiP-J8yLZ6F9VsbU-gLQk5m8r_OijyS7xJabc88E9aIER39EhBme_LEeY_zSPizZGSwrOIDGhQk-mckCHuAOku8JztKLssmgRA10g","CmRXAAAA_2cgKVt3L-_91cpqWjTy2k-w9VvMhiOi4HnApguklsdE8UOTaqRiKUMj72YixzxXceNwvxSLByyBHD9ovdOw2tfz0V0bsPW6s6qqwAsN3KnVzbr3-P4MHLY-wHgEpavkEhDvQIEogTuAnsHYHS8z96NPGhQCu8B0J6WIVmgVMpWR2n6yGffMJg","CmRXAAAAvkE6SwpGgGaH65yVAFT7a136i6yvXqPXrvojMOEInbPtaZIAmpTjeMNmIehdfBQN-SA1w5o6hGL3yhzWdUCboMnZSxsrz_pNCHyJKuRmLfy0XqnU1MS-AjqN3B-HiyFhEhAi91WU3HCXnGwyVmF3xFFrGhQKb-Xrj5O_w0jmYFaDfkRcPoeX8Q","CmRXAAAAlRYTo26DZ-YJwUANN4sn6dzt-2wjAHZcQGhuVEEUcVHWJOkWpp6NZ_ccnHI_ndjFfboiM2Qj0jpUo64Mrm2HNzAfv_l_jWscXuks4GISZhjkMQ0wdKX4KLnB_ubcNETEEhDnl7Bh-aLv9RvE_t9tnG8RGhTMvGNY4XWOnumhevzcuOrWxK8zAA","CmRXAAAAILuG6KYLE1c7fXjM9DqJ_xajZwdAxB79ShuEsDWjZ0sm0jb9CHJl0ybY7MMeFHpsBoDKSSTDtzdsTJmyG7isIzCYkLTUiO5zUlqDIccW3mnJNK5XWj_jP_VT2QxHGTidEhB1487KaDrU-q_M-U0wdqBoGhQGptH-_cP9jA5JmfAyQlK83GnNtA","CmRXAAAAQfVdXTlGDoxUCPTvS_OoIGFNv5XBFqnwqswBwPY3H4N_s98bihLDOM_wP_ETjPmwOB07Iv1vpMTUFej2SKXEB5yrKEZ3UVW8bddfSAwBeIKX9IRREQmSu8Fvy7lHEgE-EhCSf8s4njj2Z7xGL49pFS2IGhSkWbfwGKWQosTkrYQyPxspbWNHxA","CmRXAAAAfUMXGwaVKVanVVpxd2ClmjycidyI2P53pD-GnuevmbFYNsrrl1DWLTUlgqFtYKXFXw-n4cFwYjbWQ7tw0SG3ULALM9Ygqins6q44QddSPc0RiLn9QlM0sys2r-PsT8ghEhCy-f5JtwNOvIG0pDvXg-UHGhTy6c2UXrwiZXjCqe8ZMzbyanmyVw","CmRXAAAAGX2sJ_ED54aHVvt4DjJu-gOKGDY8ljpftKjkWcQfsaWLIcfVjSTBxEe_Oi3H4L1vUYc80nefVgbjkDIE35Y6dHXFBkcayt6WgWtUSvUKOPvOpD3jhRDKN8sOyLWO7-3JEhDkXEEN5-qZYnmP3oaQ5w3LGhTL5pFaH2fgOlH6m8n91t5CHFzprQ"],"placeid":"ChIJY8oX-C5GzDERVNXZFGdpR8o"},{"name":"Ban Seng Tyre Auto Services","address":"PT 12928 & 12929, Jalan BBN 1/7b, Bandar Baru Nilai, Nilai Square Commercial Centre, 71800 Nilai, Negeri Sembilan, Malaysia","phone":"06-850 1280","country":"Malaysia","city":"Nilai","zipcode":"71800","latitude":2.820331,"longitude":101.789701,"website":"https://www.facebook.com/Ban-Seng-Tyre-Auto-Services-706626832720888/","photos":["CmRYAAAA02G8De6JGUD_tl7bpjkec8Jjnsla-jPZI5tdQO6oK79e07DIdKF7AO3VOHGX8VUK8v2BQowVvMN09pnYPGx80iwRDifqzi9aHZqNjCZ5RMECmy8nal6zRYbZQb3RspxxEhAv7wBK0RjQ5pzvbOFgPO1YGhRmOhalbT3QA7odbV3mX2f0QsbdrQ","CmRYAAAAYwK_OirP89IZE5gDRSf7SqjWhrRhZYejkW8lPP6L0lvDoYGcLazBiqxvYNYg7xBHeC5JmE5LXlgXK3dOM3opOpkNQhbu9DUAn1u-Yx3f1w4fwgxhxkPcGIaUGzs2t0hREhC8QbA6otVQIzPAj_nN3JLIGhSDmwkXTEAMOWZGs8G_TG8wCh3r1Q","CmRYAAAAyyHauG17Iqug0c28pD1b28dkLunnGqcVOLRnsgqPXh2WigpR8pExIxXXurYgrho1HHbUXuZcJuPI_1MdHvtVdh5xQYBueInEFDiTEUhQUDO_zZMdhDFWfHIT9ui2u7f7EhAblZ36yOltCSvbDpV6Xu9yGhRcPiqxb8YmvDm24PKLHJitteJrKQ","CmRYAAAAtVT-VXmnppYEx38GArYgKhTol50vX2qS8BLy2agHBCji7ZZ9OlmNirZYToAyRbwfkJlUbUzwkCgX8blifpg46jveXBg_aU1XrquNecVyLsUvbQnnrTnm_w0AjFBQWveXEhCmghHzfLZn_BDX-ZFbEjSJGhQWhb-j5CQD7HnxTzB4zzRQ590Tpg","CmRYAAAAD6rwUWnHjOUPaLcYFVE-IAhxY8WG9yFZU8zNK7HGSbdtNLjpbAAk2HCFdrxWFt1Y3FzIEioMhf-1IYWI9jN4kFlHqCGg4rlYyJbHconIic0TsM-64LWbuSUPmoEYAieKEhAhHWg-dhZ-0_W_S1xfA1sSGhTfCAZUYAY6m9EoT10k8DLji97TgQ","CmRYAAAAuNr25-JC6vmvmxlOsExUIKoODO5jmQT523p3ZuEx9tYq_f_Im94s9pB-hC_-4aWDUhMAyPbyzB-mV6ZOnNLbcJyNzOAw5ObpfxYy7osOHEq_aIprxfwA6uSc_l_kz56dEhAsUGomTnpcx_c4XGV1akznGhTDhEi9NKVnvmCFawrEIZzYbfDvaA","CmRYAAAAQhNCjJ4X6DrSrHUlJu5iLlu-QRi_G0mn75RgLbchaFIgxoH-LN_L3KYYN2cIKPH4-lpySOplDdaWEkdpjzxNdfrRU2vKfqB5Jel8G55eHLnewEiy9ebXWlIRnC9b19aFEhBFy_GHa1dSQy4ubf-h7ty-GhSSzyb-YWBpMWVBbqN2qb4GEYR0dw","CmRYAAAAHlgVghmQ8o1qNXpIq3ZYfWlNpi2LkGy9Y_dK6Rjuwx027c7hirx47YN1RxLGkm3VpJt9ryc3LYBhJ1u90Q81jGAVwijBZlkQaLZWCXkGWM0pXnmcrU_RnefTI3b0hwqREhCnL0d4ee0A2UWH7rfjNJ_GGhRZAeJtPKYaJfFnV5cSAPSn5lXvRA","CmRYAAAAOU1jHFsJnkOFKWnWxMhMY4fI2maAxo3mi-Dp-iJuOL_aPcD_FRW9j7LaGjDN1z6ByZCwFtxBGdvuWfCD89xeWjXVHNcxKL1UZVa7DnTZ2ask3-DUwOH0bDs9Fe855SR_EhC59IKAO4RnF1U12cgytChBGhQ3XhaWsEIYQy3BaoO4pimI1RM0xw"],"placeid":"ChIJVVVVVZDGzTERF7MrIBQgh7Q"},{"name":"Tai Soon Gombak Tyre Service","address":"No. 181 Batu 4 1/2, Jalan Gombak, Wilayah Persekutuan, Kampung Tengah Lembah Gombak, 53300 Kuala Lumpur, Selangor, Malaysia","phone":"03-4023 5728","country":"Malaysia","city":"Kuala Lumpur","zipcode":"53300","latitude":3.2288598,"longitude":101.7110995,"website":"","photos":[],"placeid":"ChIJq6qqan44zDERhupGa879SyI"},{"name":"KS Tyre Ampang","address":"No.29G, Jalan Wawasan 4/3, Bandar Baru Ampang, 68000 Ampang, Selangor, Malaysia","phone":"03-4270 7000","country":"Malaysia","city":"Ampang","zipcode":"68000","latitude":3.1470585,"longitude":101.7645714,"website":"","photos":["CmRYAAAAPUE5T9VDGKmpzvYRdk3PsZLmdhLxEH_-bValGPFJSFcqT6mP9xO8_kFU1xV6qVv24_OFv5oKwtkxPsIN6rk21eeUmfGFq2_hPjk3e4TYfPEkf3rVKcZIfAM7s8w3E2LjEhB6g2sa88T4yk_bOvy4BzwDGhTscHlPwV4jKVDYuuTGHA9t_ZwVFg","CmRYAAAAVoyI24SbszWJ6DRcv-5CnridEEddAHnXE09s2Aup2w3d-4IF0AzOrMvNCCInx2IsOOoN3A3MGnrdNN_2BJPB6Mz7cF2t9ze01eLDni7JeSbIcPVFJ0amFxBN2_e8M3SyEhBN-q7xG-fnEBNN5GO-a7L-GhT6OZy530r9FwYZ2sJormgpRo5I-g","CmRYAAAATuaqwN6bs_dOgcLQhLnnEvCThu4XIN3ZbnbKwtwct2uMsD3F1nQH2Uxo2ckeFI2XTEURe_7eTu3qj8yOCuV4gO6Q9OHWx_Wto2YZsr8PBhUNbfonbEqO4ytwV8rIoxFzEhBh_KjKGzJVBhkPdDgF3o4aGhQzCkR8RK_4pGFUTEeN3xpiWHEaXA","CmRYAAAABQGLpWqAaePX3dS9KoLesiEH8rpFsTyPRHk_BjMaBvYAF5-ZIfejjmHC31lDj28Z5cZgdzsA6TtAgr7_Ge3DUPoiez0LYEROb-WKlPx5VeDLyuk-rtFAXZWYU39fv8FrEhBMzJizmmbKn2xF2MCAz5t_GhSbmCi3HrIdS7v3hPcUGqsWc6FjdQ","CmRYAAAAHXVfXTtIVzkvRoeX6C68yTGR7cS2s56yfYcz_gT4ajYRJYN_XE3h5rLjljfGmaC-NH_kBWXx63Ara68HUA86Tfrx59cr2iCC4uo3AG2GaXsYYj-bo-hpJNyMliYV_kK5EhCuKT9lipe3ud4PEKbeABflGhSsbIlpzWYOqr30A2KXDOWlPexbuA","CmRYAAAACBWlnAEC_aXZxa-usftJTg3KhbhU4uvy2m8DUrcshQo-3ixK7uro2XCg6baJcGanQ5uyrNpbV7CUeOtPe9bn9qAN8kUzdEzxnj5hKwFnpQda19bACJMX4r_cCqdlJrZBEhA1brI2UxFYkqoUJvxmzRvLGhQcGGsAtXS4ZtBsL-n6ls4fCyC5LQ","CmRYAAAAWGzNO6kjVVVF4Elzt0bOKh84byigvr3-EYD3NsFfJPCeWwIEib083K7RBYj1fLdH4yW-sZU-GQ31LcvqcNHqc2jc2wiFyA-o84Ifs4HTTJjpbWH-xUSPI9m33QqGoHcEEhCVqqNAFw3MDY1q0R-ifsy3GhR_mN3SB2DrbhlBQbyvVWCnK03uQA","CmRYAAAArGLwiKFmkPeZHvU3vV4ZMDow1rfSyiJnzMnud4hxWII3IhUEiuJYPH2y134v2ip5mKSQ517IS7QjwLuc262FgzkIAjU2E_cpoNryaLYaRd4wbynKHCbQu7i8W7IBoelYEhCPXzcdm676qSIoqECZEvijGhT2lxElV59od0mjKylYXsZIV7NGhw"],"placeid":"ChIJSXDvo-Q2zDERs47pj84uouc"},{"name":"Wan-li Tyre Auto Service Centre","address":"22,, Jalan 2/2b, Taman Desa Bakti, 68100 Selayang, Wilayah Persekutuan Kuala Lumpur, Malaysia","phone":"03-6137 9928","country":"Malaysia","city":"Selayang","zipcode":"68100","latitude":3.2427905,"longitude":101.6617673,"website":"http://www.facebook.com/wanlityre","photos":["CmRYAAAAM1JJxRhyWiyRi-mvN_IS2QhrhWlGo06IMRJ63TaULNF2zSHHzn0LzH9vkMWSmVnT1b42rSfPLHYB1RC7cnOzzZwvpVLQGYwFbCo5TOiVNLuuSTlAc7ymU_n-Pn5vRyeJEhAGlmgbmt6gfAAx9vLIL-PsGhQaBtmDHFokm8IhIj-9SzM-Xzn-5A"],"placeid":"ChIJ50YneB1HzDERjpERiFHXb9s"},{"name":"Rawang Tyre Auto Service","address":"No. 29 & 31, Jalan Bandar Rawang 15, Andar Baru Rawang, Selangor, Pusat Bandar Rawang, 48000 Rawang, Selangor, Malaysia","phone":"03-6091 9733","country":"Malaysia","city":"Rawang","zipcode":"48000","latitude":3.320566399999999,"longitude":101.5774012,"website":"","photos":["CmRXAAAAb2x-Z8bKkzxJ4X6_BvEvx1dFm_VYcKtRLW_MpUwwGvly97CHKE3hgumPoeUp-TY6sfiCo-ACUEgHh6l4lU23minYq5Xy8dQHByM3nQSk0LihNx7NIe7sKq584N1SOwszEhCrv1Jl_TBVOXgMct4KXkg3GhRXVSEENnUw6-Or5jXshn80v4PRDw"],"placeid":"ChIJRb8RnllCzDERo3MTwIEdrhE"},{"name":"Citicars PLT","address":"C-13A-22, The Scott Garden Soho Jalan Klang Lama, Wilayah Persekutuan, 58200 Kuala Lumpur, Wilayah Persekutuan Kuala Lumpur, Malaysia","phone":"03-7971 5610","country":"Malaysia","city":"Kuala Lumpur","zipcode":"58200","latitude":3.094882,"longitude":101.674142,"website":"http://citicars.com.my/","photos":["CmRYAAAA23Eexiuej2UOSTBWdzCAihaAj_0yvnGL-b0SSjow8YNqrYlZAViYjm9AFz6Z4tdowp6Ax8OdZIXJV5BfNNhy18L2SCNnMbO5SL9nKuejxjhqQNgNKswU-Ggo96F8TyCEEhCYQ1Xo950FkX6LeQ9VQWusGhT1Iiz3GbgcFWWsKGfNzB0YbggYhA"],"placeid":"ChIJPU55UjhKzDERJeUCJwaxTSI"},{"name":"SNR Tyre & Services Sdn Bhd","address":"59, Jalan 7/7a, Seksyen 7 Bandar Baru Bangi, 43650 Bandar Baru Bangi, Selangor, Malaysia","phone":"03-8920 8418","country":"Malaysia","city":"Bandar Baru Bangi","zipcode":"43650","latitude":2.9696077,"longitude":101.7739347,"website":"http://www.facebook.com/snrtyre","photos":["CmRYAAAAB111o6SS3HdKaMRJVuy0asQPRrRxO7WiG1vbdpxBOwLlMtpvpzVQkkmTh7HboB57_qHTO6icUc1bHHkpOkLNoQvtq3lCIRPjzmi1ZuQe3g1SX5LaHEvj8TnCuC_ownsYEhAV0GfCerCsCBEkVW6O5rwbGhQmFa9DImgrv83j2LHh4WsSejuDMA","CmRYAAAA0lM9lwp_WRKdu4xB04FNh5dh8PhlXcQgPv8zq4_4mYxFFsY1lV-octHeinBQfdV-5lFy8H7Q-VkvRsJ6JV6n4y1HVjGjyt_5A4E4SLyLMmmV0f0hkKD2U_X3JHQuNGC9EhC_TBwJEOMzgVu1rQ0vQjxrGhSQNPPs7FSwD4iH8zeZlmw4fInk1g","CmRYAAAAD7BRmrsEC6x9e2dEVQCjOEGVaRyf7kM7j-n7lPJzaQkQekZ8iP9CeBEeyr2CYmKvn4UGhfj1GLDAVZwimq6IBuDYVgX8-os5NLpkF1zzq-9E1iEnFwMyilPO8krZhuq7EhD-Qa_9c5zVCzRhnkK-NDf6GhSwONnOInn9DMNSX3oE26E-0foPoQ","CmRYAAAA-n2u84fjgkjp9Uo6Jq2g8gHvFhF81Uh3qUVMPhbHuDdMesgEej3Qz47jvV8uOpSoFDAiVLfX1Yuj8rceB36JANJOgz2cMYERPncPmopNEIf_QHcgEVMuE_6aSj1jXI0nEhBk3duFdqnex6Wq3u3F5mjEGhR_hPent3UFQ7XC2w9NFnyFQnCWsQ","CmRYAAAAYYpOPnHSuDbKm5JOB9omdL6PI-m1eKoCu-ubdsg7ZEtXixjzHLIxD8igsUHjEoZmRO-69ILJ7l5POkMpb3DbEXFcGU3lkYwcbOEB9CfqoC5XFbpWz_TIbc0JeMyDB6k0EhBFRiyDbZXXks3ZM31z7t6nGhQopZCscnojbhb14LeUjQPg0n2svA","CmRYAAAARi9YESrrlkTTN1TwquKgolgz2MwoVAgU4ul60mAYi8s_CeD0LdpCmZTS_bRHTilhNLZK_x5fc5I3mfryNjXWmgzUfy93VGeyxMyFVx-23PidKjcvKB4UTp20yX2beuylEhAPANuEmP4K0EpoGRBbjjaMGhQh4e7F6ryJdbD-P_nsNVhhcUtrSA"],"placeid":"ChIJjSan7cHLzTERlw-ijWhUXSU"},{"name":"Y&T Tyre & Battery Services","address":"PT 5775, Jalan TS 2/1, Taman Semarak 2, Nilai, 71800, Nilai, Negeri Sembilan, Taman Semarak, 71800 Nilai, Negeri Sembilan, Malaysia","phone":"012-372 6686","country":"Malaysia","city":"Nilai","zipcode":"71800","latitude":2.8211922,"longitude":101.8184531,"website":"","photos":[],"placeid":"ChIJy-FULj_EzTER2nlG-foR288"},{"name":"Tong Shen Tyre & Car Services","address":"95G, Lebuh Turi, Taman Chi Liung, Klang, 41200, Klang, Selangor, Taman Palm Grove, 41200 Klang, Selangor, Malaysia","phone":"03-3373 5699","country":"Malaysia","city":"Klang","zipcode":"41200","latitude":3.0258886,"longitude":101.4297845,"website":"","photos":[],"placeid":"ChIJoUh_ylCrzTERrD7N50C8ujw"},{"name":"PL Tyre Sri Haneco","address":"1, Jalan Sri Haneco 1/12, Taman Perindustrian Sri Haneco, 43500 Semenyih, Selangor, Malaysia","phone":"012-229 5848","country":"Malaysia","city":"Semenyih","zipcode":"43500","latitude":2.971073000000001,"longitude":101.8628914,"website":"","photos":["CmRYAAAAEncUAufgF0eM2c7C__p5swsjmPsDUkJITC0AqUs67mchE626WA4iSkjY5FXQnkyRgDxSNhde12-NABhdadcBNdBpFmkB_nVbqAv5ztuXI8z17yZE5SGd0o6ZiLuEZ3pAEhAWPtC4GVMAKb8UexdJwIhkGhTpJrErqO1XCwDgxp_Ri49Z1O_WAw","CmRYAAAATbFWm27xA5jDXp7lCQFhV-RoaONiXShn1phycfWyUG9cYa5UIb-JCSM3bbwaZiWfBIxtl3wXqdHqYKCcLEVh_kEODS0gJnQrdQFQtR46NMTmkRZDak8AZqi03L4q1mrSEhCjaPRU2z7UB2qm_qfodtYbGhQpuhky1zn8VWnE2h6k08PhCIyWxg","CmRYAAAAneVheSQFTmbFduTBxD1l8IBKGNI-BOAVQlslS9C8o0q0euW4TDRP1ZAZVF9PntqaDIcYIPbVcjXcMmSzWx-jkGBzK3jZyhdsty9SCHIzIohKPnAqjNX1p838y0Y_0MLdEhDkJooRS9XGbTqwLAM8nSecGhR-HgGTuT5jzyM2gsN8N_JJVN00cw","CmRYAAAA9Q7DV-heUQHezOpse3p5OIzZv-dAJg7JY79aqwRCQ3xpoTp1vzo1H0GcTCkoq6C_VYEfW6Sn9aTgF9vE6xE8A3zohN-wJmrPb7ZpYbxbCcuglIZnAn7dgzIfBfBy_X25EhBjO7zG7JyTy8f3NCx_tXKAGhSOUKS3mVU7w5bjcoIYU-02NMpOxQ","CmRYAAAAhdDlXx5ruLaP8CFke2A0kPBhhQ1-hZNLPgzjk3gavpNy8Q_f3lNRzvUspo0NPXBOdCG5IeOHzqvVSxJE5uQhmoMsj5PgVLc1ItarrN-paFJjxfWK8fPl7kXQENeayJBpEhDuyDM-RK0_aVxOxz8_8uwrGhTJQeFoBh-vZ9tGA9QMiRuGTYfawg","CmRYAAAA8jYY6Slq0nTcb8EC_lxkdSI0RGiiTVqB_iB049S2EAt7MNTiF_lWlsQXz7OwE4zjDL5yVTrLRSAlVO6F0n4whkrMkjefR3TceZqmNfmZv-E5Q0-KQN0PxtmG9rT9zGKPEhBIB_EAffhvqYhmb6fXfbAsGhTLP8d0aO7N_as3e8rWv0Aa7VUClg","CmRYAAAAjhYTdKVWO2tNuMYl5plwUw-DpeXZZXvK3xDNWFx8tnjjP9ImJThxRAj5IHQBkLvuey0xxnJfBF8tTkXADKb4EqGoavFdIPD-2OWR8BpQlO2Vny5XbiCeUgLtIL145QqvEhCogKcLQAR2ptJ90844nRpXGhT_GFNoSFGiORrJeBvo-AWf7pZKew","CmRYAAAAnMQQuCuPoFd99XQsFL03yd6tJz5_x26vzVN7_kUPb2MeK-5bBTaZ1lldIeNF-5Xk-ATVWPwYpg5faXHMbrjBgBXDf78Jpwp7epsOu19GA_OP1uj9Ou5uznU8QRhPtaWmEhC_NuC1il4R4PwsrURe2dHdGhTLJc_lubtZNZcuKJpYXeJDk0KtPQ","CmRYAAAAYUllTliekuJZO0-atJP-ZxGADitubTPIp3COpvRTCtbXZrzU-u8GU6xIO9ZuEQUD47Hb8UEv60t_8Hzu8EnDM0HcdKj4u_xyZu_kg_OtnC0_bahZ72ieRfLcnelaQyGqEhAZf8o4jcfnnzo2Z_f5EAoYGhT6oy1sUX4E15tIhwvZdUrrT77VOA"],"placeid":"ChIJMxxA8MDNzTERhPee_oSuvWI"},{"name":"Tai Soon Tyre","address":"1, Jalan SG 3/10, Taman Sri Gombak, 68100 Batu Caves, Selangor, Malaysia","phone":"03-6189 6288","country":"Malaysia","city":"Batu Caves","zipcode":"68100","latitude":3.2428449,"longitude":101.7024792,"website":"","photos":["CmRYAAAAOFhey1h4pjAOUhiN5L_gT8okG5OZp9dXqIV3AJ86IvBoDZGsvbAt8ftSc7fqVby1IZwgkQHLoiCLYl_n4NSRGZKIO5dqDFVailG7H_G6ciOBOInTWxeNj6_1pBQ_r6iuEhDZk2xtM1jyW22DTz9wsOcoGhTRqI7gMb1SE1SbW3dkcrw7z60KYA","CmRYAAAArajOlhdMeJf2p2tSOPETJXOGHVc_NoHJ_3AI9O9kezLp4C0ogp8CmXTo8VZKMQHbRmFU9-5-VbgL2afcSBNPeXV_Gxo5eq5YeZqhZW3c2sRPnfXofALbAuUWQlZCkRpKEhAU1JvWvXpUZx7OiUuZK-H6GhS73bzvVdQT5fp_mtK-0k0EmCe99w","CmRYAAAAtf3I18NNgdx692hhbWuI3ZAY5yoEe0XbRhQba-lfPH5clrCR6dTbV--dgdtWcrUv5cfEVduByRMl-Wee0UBAuISGPG1DK202haTX6OY0FCd-DBVTeseO0GdT-0z5fIKtEhBtgwiJnvX5QGw2CZxxskI7GhSrUmEJ19f7030qQFBBJXgIYv5vpQ","CmRYAAAArhe26ZIp9W3woZ_eV0iip2d-gGzeN6WXk1zZXSFnLcP7es4s9YJ067jPu6EV8Q1oi3jZtP5aSv1nJ6Ki0DE_KeKQaVdjsk9-8uiLhFwM0brx86CdC7mj8EGG9dzfg8Q_EhCIM_z6tt62-zRQgIi-e9IFGhQv16lmNC3PJoocyHIz_5vepy4TMQ"],"placeid":"ChIJb-tPn2NHzDERbymUeaA6uzk"},{"name":"Nam Bee Rubber & Tyre Group","address":"Lot, 3, Jalan Sultan Mohamed 2, Kawasan Perindustrian Bandar Sultan Suleiman, 42000 Pelabuhan Klang, Selangor, Malaysia","phone":"03-3176 2888","country":"Malaysia","city":"Pelabuhan Klang","zipcode":"42000","latitude":3.0236433,"longitude":101.3672155,"website":"http://www.nambee.com/","photos":["CmRYAAAApo9x7VpaijoI0vTb7NiXmdB_TsBN-pev3bJwMklJygVgJoLeNuLgWHN7-qPtR9sZLp4p0AHMgi0Fpv7ZOFDGjuOW7NxDHVRQJiXGh2C_qfTRyIlIndtOeSO8L9iRtpCNEhBm0egfs7Lm9zFSi7tQ0G5RGhQyZ7ml0lLUSqR1kZ4dXvyHAc6sCQ","CmRYAAAAowbIgMivAwnjdkt2ns60pOEoVugtbf9StoOmbCTazxvHjdkB4b2D1iZqgsciVdlVs9L0RGZ4XcEe921vu94lQPeZWceOG2Leis1b7E07ZNRROEqNPNvAjY1KAJ4OfVK-EhCMU9j3sIjnODHxYDoHYrLKGhRAYn3_FVxJ6YqNPIqLDaLK2XDFaw"],"placeid":"ChIJ83iHfMuqzTERzle1Hnm1zIU"},{"name":"Cartech Tyre & Battery Service","address":"Jalan Burung Jentayu, Taman Bukit Maluri, 52100 Kuala Lumpur, Wilayah Persekutuan Kuala Lumpur, Malaysia","country":"Malaysia","city":"Kuala Lumpur","zipcode":"52100","latitude":3.200846,"longitude":101.633071,"website":"","photos":[],"placeid":"ChIJFbja-RlGzDER8jaazR9HJYA"},{"name":"Klang Hin Leong Tyre Services","address":"478, 126, Jalan Kapar, Kawasan 18, 41400 Klang, Selangor, Malaysia","phone":"03-3343 9100","country":"Malaysia","city":"Klang","zipcode":"41400","latitude":3.0545795,"longitude":101.4466099,"website":"","photos":["CmRYAAAABPwHnXDq5SyHg5CgKMGbRU47hSp54-nr7arts-O0nbcJyHBurR7KZ-d71QEZBQyo8xYEk9lTqClSB24we69fLH3U-Vg525dfAoXKj-aUULCZXacKPry9aX0GNITgKl_AEhBjr6ATArFPO2MIkAFPo0fDGhQHpq0qlcMlwBrkVDVwG9gjxdy78w","CmRYAAAACqe0Wlwayzu0_06aLYwNYRRNLujrnfUwNkmP9X5isUPtUMUmZWW03GjDmu-sR0lueg3LHraACyzfFC7IL4xOe9r_3LfX8HNf2otaQPJFaZ-qS3gQfK6VN3PQECVv9P2ZEhDQnaOnGYIbCvYuSwQ_ADJDGhRYB7fg3lEU6fShIKYRSc8gnVj6hQ","CmRYAAAA2ORuuCl0lItK5v6H6ahYkTJpdFfT90CtY8gY6plt71GnhH99r5VLhzQwwLTegyOCnHziH0pBkXgER5Ox26bTShjBvolyIxxlgkgqZ8GP_Id9UO7CRNupk8QbpShxbRFYEhBXX1PIIgoRt5hKwBCgN8c2GhQ7zsFvGNJBNpb86m1w5pwkjcIb5w","CmRYAAAAonLLTL4rEN1CrcobnKG0EwKjkW3eKgA37H0QrTTyvqAJNChjPQxgERXHbgOipOSQcn1F4_rX_SDHZ3jAAEZL3pGQnWor8-VVqynW-AevQt_UUXOAShM7xqa7083cHZaEEhCxVZvJLsT-YI2EYn6_6tDMGhTBxM9d8QhLzVqdq9M-ZtwMo5gUUA","CmRYAAAAXBJh99eIcXmGGyVbUmknHsrppE-XOVCFLZMNQlUsrZZwiphxppyGz5g-IxOjpaJTRN16pc2k8-iWe23S7fovYpl-sZg-84FhA8Znf9Uo0SimeVPCsTBAWy1d3I7JovAoEhBVA4Qm9rrin1stU_BIWRsyGhSrg6py-QNbl9VtigmXxk7vOOBIjA","CmRYAAAAoYvoJCat4hD47u9GG4wTo4rWZfSf6cCYXM-NKfeBrOcZFF2f2DWs-Rz1ghc7iqwkRgW9qe6hKT-CpU16QxjlkH5nXKpAKhrAj0fxB7phd8xNCgG-6M6EBnkXbrbeMkVxEhA0n7XSEkMsbYHbv7O2HqqtGhR72CoDCXXbVGDuZxlydYwhne2n8g","CmRYAAAArbo8pvJSDAi_rqZd6sa9-SN2q9NN14CFRa5WDjDP6fltPr9G9IDQKMny30tEM2asoJ1Ti0oZoH-Y-AKcX2Q9jkPkAtIJPKMJS_9CPu97M-T6zsn1ndEHFTr8oTIhQZVvEhBV9WSyaPQzQFXuXJFiuqAUGhTLGJZPdJHGRX1Th-INJh2Zp07WPA","CmRYAAAAizlreV88jjEf0yaZtPnEH6Zlgvhyb-vAdMYpuRx-U6QIAUg__4_okKp9bjlZIS6VFYQ6yVshM_4fnkMZ3YoiTj9CkvLMjGWk1nsLDAvLBaCl5x-elleNdE4jCBjnxGbjEhBI0aXZpLFhK_IXCIhQH9AmGhSwq_a7X0fKCNVHJFXdL6IffcomgQ","CmRYAAAAo-ubX-KoikKSHulCPSjiwYbIPkOn3o7Bluxf-jm0DLcMnxS4QT3LHS_Wkx5hfNHgF7GQW2PjaCaANE97kT6K0YG-VHK4MrbB847JQQwC-UKqgTIRDSGvGh1_T_kcwf62EhCI40yph9s1q7qFzogjID0-GhRShVnYFFlNNfiP2Ruwz8qmG_Dj9Q","CmRYAAAA7hUfg_Q3DjOElDfkNrB2z6wtZ7S187vHeIMZsNd5_EjgLzjNPcBEckRiJpB4YgzT9CkhTv08rrdAQZM0VyH6aBtfVCcRSheEJ18oPfOKpFrtiZxBQ3_wQUj6K3k3QsLYEhAqqMcqAKRILyeB4CgmtWPaGhQI0jBvjM0tt0PfLxXbYh5hRpJyeg"],"placeid":"ChIJH2wTwEJTzDERdOeMgfSYOoI"},{"name":"Yip Brothers Tyre & Auto Car Works","address":"Jalan Dato Mohd Sidin, Kampung Telok Menegun, 41300 Klang, Selangor, Malaysia","phone":"03-3374 7223","country":"Malaysia","city":"Klang","zipcode":"41300","latitude":3.0358098,"longitude":101.4719971,"website":"","photos":["CmRYAAAA7AZ0eGXZ5L7llEjIsCDEt0til83yiOzJ1Vkc0fv6ypZa2GHstykTR4w62kzrEcQmQRWtPjO2xPP_6Sv_yBHkpM_BkuKS55EIrVVUQDcO59RLGY0v_qZSPTFCAhrvi29XEhBDp_5OA42YzaAZupGCg2pAGhTmlmqB3JzV00Ar4EISg50ixNLQLQ","CmRYAAAAcV9uzvq7D1BWzx_-frPVEM683x54J308EHF0r7jXbC_Bf1DHhU5Uzs6yMbQ8qMhVi4xDBVp-w9MNpbvcVeBBt13wMoD5a_uCg7vygzFlyZzcOeZnEAC1Q6FqI_lxFmY4EhB2rC8socv25Q0PAsCdIfQtGhQ0Wu17K6LUVJXxGGbJRxHTZbC3SQ","CmRYAAAALPDOgUiyJwOpbNs4McXCtDqDXsMGX7Wtg8cnIVtzQ-UpHzbzjjWk68UbuUrZEKK6zcjZrcpf8cF470C0vFUgcd-rPm-DZiyQPa0DPF7XhzfSOP9GVhOs2SAgmIFStpExEhDb0AtDWMX0XAH1JyXUYdI6GhQinbDcnRxPBd3jcqBJxCLv4K925Q","CmRYAAAAo6WM_kDyWdxbRMD3__PGCaekGbXNaoFmZPyEnV0M3kDjpVCoMiftMVUe1HgsRpFuexmt2Lv08HuVaGXHK8zgmKy-V2BQ925wDhq_9Hi-xHLaxEzWZzS_-SqZOU94Xfv3EhAJ_al_LhnyMk40pyKHZGflGhTD2H34QacWePk3c1wtG8ZnNqYprA","CmRYAAAAqEwSrYyr3h6psHt4itxVUEwlZ9n8h8ewsrKbiarV6uXl3vdJmfj1ew25LkifXS5deBY_WoshG8hqno9jqYJvr3H-4p8s9yg-IyE23tIcZVpxgN57wyktKz3bczmqUaL5EhCzZgbDHxXfu3-U00JhJZiwGhS0hVlJ8vwNWEZVsYuqjnKOX5Cvpg"],"placeid":"ChIJHbOBuCxTzDER0lgJoZEpys8"},{"name":"TIY TYRE AUTO SERVICE","address":"No.11-15G, Jalan Jalil Perkasa 15,, Bukit Jalil, Arked Esplanad, 57000 Kuala Lumpur, Federal Territory of Kuala Lumpur, Malaysia","phone":"03-8998 7126","country":"Malaysia","city":"Kuala Lumpur","zipcode":"57000","latitude":3.061541,"longitude":101.676825,"website":"","photos":[],"placeid":"ChIJ81pEQu5KzDERRhmmenQIEWo"},{"name":"Jooi Seng Car Care Services Sdn Bhd","address":"198 Lorong Sentosa 45, Off Jalan Batu Belah, Taman Sentosa, 41050 Klang, Selangor, Malaysia","phone":"03-3348 7499","country":"Malaysia","city":"Klang","zipcode":"41050","latitude":3.071260999999999,"longitude":101.44418,"website":"http://www.facebook.com/RimsZoneMalaysia","photos":["CmRYAAAAtTXoPL34aGBy249AONrIzlcS8EizIH8eELDc0B5FeFnJLDkloKJyaoAPQaeR_2GnggEyHd4ILin29p2BUVZDMmozzkqRGxyCTQTuTjuESPyHtsY75moPWdUofVMxprnUEhDqwZIW3HirYaIqTPQMstsBGhSpEqqk1boTkn6UD8l5zAscYtRK-g","CmRYAAAAtZ2Sqg2BfwmAV7agxUNhHEOKUpUHKold9tpqxn9JIU-iIwE94qahRgekE17ReiLkS4ma_8ckSqLz59MfpnwAOCwSh6WFUc2JkdrDycJYe1uyD8JB9agRMPLG3nnu2ckuEhC4KJxTpUnrhNP5xgBVYT5HGhQ10PXpejSm753pgehfjmsHZYTLGA","CmRYAAAA1IUTqws3V-v3lyj0QCZGsefGZBNuKWa9cmaKpceXYGsS7bgaZCqfWUJOvz9K9dQW7-OGMVqcArHPs1SWVzlZW4wxo1DU4Kf-0p8B5lXAhEYKIK8zI4-N1jbiB8TG47IZEhCgKjrv3rTN5QUX-ii4OaWRGhSR8vvpu3RaLStZoYc-tRqccWpEAA","CmRYAAAABa3RzAQhmMtDNdyxI-RRtFgy5ubg0KmF-vWKs5-Sg-9ve9LSIXc8LtNzn-wZCuwZ07KdYAljjaq6Ltv5OlevwWRhYcKt0WHZ5Jo1DEwjwOwB43S96Rxos8dxg-8oilkUEhCJt9emhFuaY_0rJimssoTqGhSbHPznB4M8wHD7dEFdPQhWAgFr9Q","CmRYAAAAwSMYRylF_1EzGmK3baPzphO_haGSsVC9g7EFD4a308wMTls2wHI09P0rpmMPkqhB1AFm-doMzdvxxDKcgt5CA6dQ5fOHhintWvLm3eDp-IbUrxoZ_huuKWRntfiEYCVfEhBJuJst-g0o3l8Qeog0kexIGhR2KFTVdDHxG7HdWD8FiXkM3Sql1Q","CmRYAAAA79v8LbgqKDX3KWpEdVGa-eeImXwAki4a3azLqk7kAVab__mtwIst3xN6jvi6TxFroqOWFhfMNw0PYtUxZqaT9GzxG5IPpeZBzwk374R6AbL-9Ut06qAHl9loqebBIeeeEhA9HewJKAf82dIr7Q9L1EEhGhSAPYeknZUavPzFgJxa1ADGNzljAg","CmRYAAAAM6STCNTjrGfJNfP0emiYxuTU97e4vFHbMqmMw_Gu40XcRINROEuzcptC_fgpbM5qvcZFK5lgD5A8p35xvRlT0AKsq10HvhvdOD5bbJKzc9ppUYdeTd0nIj3REz_2ggPNEhBgldmMdwWPwA9IFtCJi9s1GhRAvBD6ERb66P0kDs1mr0Ky2rgGLw"],"placeid":"ChIJc49VhXhUzDERcjj91NLmcv0"},{"name":"Setia Tyre Repair Product (M) Sdn. Bhd.","address":"No. 1, Jalan Ptp 1/6, 47120 Puchong, Selangor, Malaysia","phone":"03-8066 2112","country":"Malaysia","city":"Puchong","zipcode":"47120","latitude":2.9624986,"longitude":101.6170121,"website":"http://www.setiatyre.com.my/","photos":["CmRYAAAA7MUZstnY064cXWFJsmCcabAkvyjZUDriP85SGQ28JI1gHOF67abxlhUMjt6BqoFpOpqmpCvyvOJH7A5q-G4PzwF7szbIP3Ynv7FPdGLAxmKQDiz0fMzc-7OwHJmdEGYMEhBs9Ivv9JxsCztwTvbi_K0zGhQ9YznMTr6LsubMC0nRyZqkAKPR1Q"],"placeid":"ChIJiw5BbAe0zTERb_nccwlHLkk"},{"name":"DSS Tyre Sdn Bhd","address":"Taman Sri Rampai, 53300 Kuala Lumpur, Wilayah Persekutuan Kuala Lumpur, Malaysia","phone":"03-4144 1333","country":"Malaysia","city":"Kuala Lumpur","zipcode":"53300","latitude":3.1965945,"longitude":101.7338756,"website":"","photos":["CmRYAAAA4wGIXyRS58ufgP1uApQcSl77aQO9_CVO7bZBstgLdyQYPJU48_pqdIFRkbOu6s0tw1y65ydtKrMRmL1jdp2S1VBqZJ7D9ZAhPyumFu5JIUOiRX1tWMZjzfb24qgyeLeQEhB1ge6l-2XEuXTE4rZjsUP-GhTBT7bO6gl_KEihImxhBze0PLi_aQ","CmRYAAAA2gzYWbC3-FqESqZUEIy5NQOKhrZPcgC7M2fQDcxw7RGLR1UU6_tp5a7mqZ-KwiH5O4bLxqYSzJC664UgEdHetQeazMj2ewdAt9coX-M3yENkqKpPM49HnwYNPypORdGGEhBNaT41BZS64nBoQ3Ym0DGDGhQ4q3uoICyQIdMjKcGXpvK16dMcGQ","CmRYAAAA8UiEuzN1VnUG9NttIz5ggma_RBkn81BRrg91BpbxsryMMrSdHOkY7ba2BGfGG84vc8K9qFN0qf3-c5X0Gm6SGbjHndUbMHxincjEL5RAKVoGMllYkK4DyKRvpSJrIlH8EhARKA3UUjklrY_UzV_ACWnCGhQikXD1SL5O0eBWuXPkbLxN2L0m1Q"],"placeid":"ChIJjYr9vyM4zDERZxQlvKJI9Fs"},{"name":"E.D. TAYAR DAN BATERI SDN BHD","address":"10, Jalan Bawang Satu 24/36a, Seksyen 24, 40300 Shah Alam, Selangor, Malaysia","phone":"012-231 8695","country":"Malaysia","city":"Shah Alam","zipcode":"40300","latitude":3.0438087,"longitude":101.5140126,"website":"http://www.edtyre.com/","photos":["CmRYAAAAzHEr2_5lTLLkU1PrEi3HyI4WogkL_aHr8dU3rrk9xZ64bdMKiWIrfvXJwMczT-IqHQh5HjUb530vKRXD_abCTl6fGDFRUbNm44CEHQnXyIbvAGguFgQfDunCC4BJxkoCEhDamgnnHvh_70Xjx9FCVXg-GhTkeT4Y3sEoQ-7jUbSD6pUhl1IWaA","CmRYAAAA1FNh70JkOdZ0r7gE8tnueNcpcC8yrup_FUnjEx-ufP05AwYToZSfiAIpfPZ34sXS9OcUp5uA-zbrctonYMaPgYgFNRWPZcIb-ji2UsLNbBRG0VsMUxfVqbMefzeDE7DVEhDQNiHIICCxbUdfCMJFPD7WGhSJlUYlEOD_PwczVHbbR5xPH7Awyg","CmRYAAAAcdAuUaU88Z1q_XelgxbSNK3nxhFgVif8cCGX5cgmvznecol466rl7XOpT9M--UPTRm2ppTw4wlXGElbC_-MBcjF5G6KQ72-pnG7pUZ71Uu1B3XPsmagUQtv8YCsfNSYWEhAM5kYce8f5CBQ9V3uXj_OaGhTppx1YISr8CA8hceW1LVPkBwgo7g","CmRYAAAAq-0osHnBx0D64GOgBlRVzn3awSkSkpZq8Af2qO6jwXcilegv4HihN66zzxzG7dxfefpTWNojNyZu3pwzxfrle5RKI94wx_l3Wc0twcVkS_32NGzV97wASvaSORN_8BfZEhBwRI-g7YCo1aY5bcNoF55AGhTLYfVDq1Jqbs4K9RFvY6oZz38nRA","CmRYAAAABY9Lc5LlBVeX77OrnZI1P9bK3jfamFAQttzgjWO3jnIxdu0OY_Y9ptbRNUkfTVWXwTuLk0ZYBN-S-9g3X6FaQY6aT5MwlAw3N6q52wQqPHLhGgSClTpQs_FbqJjN59kaEhAtsIC4Jmy2ZXTt-dICYzXRGhRsgbAZhfVTuHSAb2A119BIUAQmJQ","CmRYAAAAgCW03bUZourhBptA1SxQtq9sx6_9rmLHY0BxJou25WiWkWFUZKAwMdL8pa85YbPoA2Mm909k-upfZnV8oU1j86aZY29OW0CD4tcTv3jCvkTcyFfdmlDte3RCxiraoqLzEhBiZu6etMwvcR3iDROLA9eTGhTA4XPw1ZCkSIK-k2rzxz6zxIgEJw","CmRYAAAA6eUkonXvyzaHgqNM34VMTTc8_35MSxjEjLEkrXRv8-0T95rAiMNjruaxvrvKrCxGT5rT4VepUcLQVcpCPdgw6Pq4uWAFuF5MJ9ZQxR6sz1vgIM3Yfvhd7D5HpsSHA0-gEhDqKWxz-IeqCko5O3RhT4NOGhTDOFgXUGcrd_rx4l6hg17LDLVWtw","CmRXAAAAme4updGcz5PcKLgFUKbD69SxIxAFXPJEdZUUd1w5OxssINvkz068GOucnvYZgxNKMjKxIBMb7wvCsFWHRF5OEquhLrcnwidNEIf4eCKZhZPhzMGIX7x2ts4-PiPhwdUYEhCpOfZ1-YzVjv4pOWcfLUuFGhTn2Y1pOW5eqdhpBMdxt2e6PnrSRw","CmRYAAAAS7g_CQXskgO66pu0hFAjw5O0bW7Ve3o52_Ko6LUdyWPyeKLmySKYhn5aKbpMb6p5kGvc7wUQ7HDKA2l1zooZSYVCHzuFEvhwRLTSb2Jw5acDdG2MviW7Yf5f9q386AdDEhBKdUwZCjM8q1zqMLskxW0KGhTkGpsiir9wfNUtFra85QzpA4i9eg","CmRYAAAAFAwQTQ-Ao64_CluIdeInWMIyQvex9PhC75Am8EaUFluiXFd7lfU9TGmnmZe_o3LxLO8cmIQ1PEMHKc2NJa-7B-NmHMXD4Vwe93jo1FQihc0R9bHHjAq-jK5wLjrW_lpMEhD7T_vaL4uSOg9Wq_vXxNvMGhTB-URQonEfwX9prw0XWb-dDDcN8A"],"placeid":"ChIJBegWKsBSzDERbSL2KfjULKo"},{"name":"Bridgestone","address":"28, Jalan Midah 1, Taman Midah, 56000 Kuala Lumpur, Wilayah Persekutuan Kuala Lumpur, Malaysia","country":"Malaysia","city":"Kuala Lumpur","zipcode":"56000","latitude":3.1023179,"longitude":101.7336415,"website":"","photos":["CmRYAAAAUgKmI6yHUl-0nRZ9RLssy9H9OUOLYiIiZGQ4mtAHiJUYgSaTz-p5D8jO763y_gw3H60sEGg56IKd37qhb7egre4kpKsZrRRYccC_fFTDSMekO6Z7xZS7dQZVFEG2Q3HyEhBJ0QpIbaYfuB55JA8VeAMCGhQeRM6CNCPPeG-JE5Xpk8hb5X61xw"],"placeid":"ChIJDYEdydw1zDERg3OXG8W1oJw"},{"name":"JS Tyre Auto Service","address":"No. 33, Perindutrian PJCT, Jalan 51/225A, Seksyen 51a, 46100 Petaling Jaya, Selangor, Malaysia","phone":"012-638 8238","country":"Malaysia","city":"Petaling Jaya","zipcode":"46100","latitude":3.092266,"longitude":101.6284089,"website":"","photos":["CmRYAAAAeP0MOmwEa-9mUED2dQSmN93giqV0J7dbsENjH_1hKxjljHSErGzq-wuTJkANulbwuDAFVHUOC-JWuADQvzU_l4ZsV8RxGCLH7EtI9I4FXoKWJd8D3Punm2dOt8DiHJ-7EhC6mkJMLGZMe2oav0ZAF08wGhSUM5efYfynlUOs9qe1KBUausY01w","CmRYAAAA5beilbZgM9cvUyoA09LrJoMqA9yZFCcPAXMTk12KVAbdYfWnFEcjfYISn_M-Ursiuu4XuDPfqeeM_c_1kehqg-O1mgLpF5FCYurBIBCebOxhffvNUixOHQvaBo25K_zYEhDj0F-y1nUIHC3xDN2TmvJeGhS9rONOismnNm--WI83RYRBpEgzvQ"],"placeid":"ChIJy00qv5JLzDER0fRDiedgVwo"},{"name":"ASO Tyre Service Centre","address":"338-344, Jalan Kampung Bandar Dalam, Kampung Bandar Dalam, 51000 Kuala Lumpur, Wilayah Persekutuan Kuala Lumpur, Malaysia","country":"Malaysia","city":"Kuala Lumpur","zipcode":"51000","latitude":3.2040798,"longitude":101.7014577,"website":"","photos":["CmRYAAAALRAGMwLrbR3stFkZugS6oY0I5ShwVEzHQlwE5HJ6q7E21aut7rDUX8rmLHiaT_Ioni_KVb1DoH61PrUR8IWiuqucyDP1ta0xEVYflFnWzigWIcdmwsnWhI862FK_zoMyEhCRr09axGno0GhxtScChcCwGhR0Sccs5GtdIsUxGVbuem4LgW38xQ","CmRYAAAAn93vnFWlOzPl-GgcUqmTZvI-YZh9JqSWdPCPX0FeBO6sraKUbk1RXubH7yz_4N2-qlgYPXYETGtaAZ242muzwWhjJKcHg4tXhE7jp2Y28kiq5EUAKmHwwIM98J77YnaJEhByqSIU_DIuH0Mo6OxTF9LGGhQUVH50QDE1Z-hY57hhQWHXj7fjjA","CmRYAAAApmmDKr0FwEKFjyGa69-lcYvfglBB5S-JDgaThyPE1ML3iLY7_vszAiOiZUg-RPEWDIx3N78FinVoJeCb8gCLMJe8l8D0IcIkeD2XYAlpT3E_Z9JANIA5Y6t-wbzxrTRXEhAxCkYMEgvNeWtMyRx2JNtBGhSpRBPjhI5fZMmp1ThVG_NnOgYQnA"],"placeid":"ChIJDczly_ZHzDERBIpqMNougbM"},{"name":"Tee 3 Auto & Tyre Service Sdn. Bhd.","address":"Jalan Selayang Segar 1, Taman Selayang Segar, 68100 Batu Caves, Selangor, Malaysia","phone":"03-6139 3233","country":"Malaysia","city":"Batu Caves","zipcode":"68100","latitude":3.2522023,"longitude":101.659802,"website":"https://www.facebook.com/tee3auto.selayang/","photos":["CmRYAAAADX84cmrN5Wc1t3j9fX7Qflt3humD_7A-mCpcpal97evFOjpsKSS5hQP4p4XXwpbT-A1t0rYHtL10-EAA9X-gr12FsgyoQb1PvGHjgl-weYH-hGtoLbFMyczMqrQf39LfEhDrb45F8juEuube4hxOe4qtGhSlmv7eQ0BidQnTtdk98No9YleQnw","CmRYAAAAARoY5x5VdCimQvA-DrfnzekPyi-nCFeCdrivPG9KYwJu38wCgsmSUSPqQIBBEk3pRr2I8uii6vnem9Vj0cHwyqWg0eSF2tfX8-loF9WBNIhz__lDNmvQcouHGaBG-gN2EhD_9iw68dWJKX1UBKPWb6NEGhQkt_cL6HC09e20xkOwPUFPms-YAw"],"placeid":"ChIJhz95vd9GzDERnA949mgaVm8"},{"name":"TMK Tyre & Auto Service Sdn. Bhd.","address":"Jalan Bandar Rawang 10, Bandar Baru Rawang, 48000 Rawang, Selangor, Malaysia","phone":"03-6093 6615","country":"Malaysia","city":"Rawang","zipcode":"48000","latitude":3.3185247,"longitude":101.5775175,"website":"","photos":["CmRYAAAAnImNYsFUqPRWhmyeNDNNG-MwPm5xdBnsjF3gggxnHQW9ooe_hielSwFykdIzoLbkJN_FoHzaZFG2oosgPqanTjxj0lUHNxKARgP2uPsNunjgpqbiXDkywCpxxD3xyl1cEhBLp5B2XFmWidmq0rDGEhvHGhQFKXOoPQMmQa6-Oq-rbaeoGgBL3w","CmRYAAAAfpDWSyEsPg4enH-6RF1srhT7Dqqlh-65o6wEXmzWPR3EoXNh3YPJ-XbR47hMGK97Fb1aZ1ESS6G_zRE8nrPVCF5I01zg3WzJpXZ0wCbnJS6wxK68_AtaNiXwTpiFG1xSEhBcHrHiqiAuVZmG72mDZn7WGhRObkSrCeDaRSLGDaXPjIpFFTLazg","CmRYAAAAkJxwKs4zLbFLaMAInCIR5qXxdVoTOv7eokKFBkDLujbvfJ7HFdju0m3o31Bm3sx5EuTvTR0iM2klJWFUR8uaXH1tDgHQa7uskxGRQm-o0w9tc6wEHu2cMTEF-ZukkpxkEhAdIOnX-T-7zx51OzK37ieeGhQoU9d4CSce9gWGBjPI-60sUF6Q1g"],"placeid":"ChIJJ0SH51BCzDER2Yrai80sdTw"},{"name":"LST Tyre Services","address":"Lot 821,PT251,, Jalan TPP 1/17, Taman Perindustrian Puchong, 47100 Puchong, Selangor, Malaysia","phone":"012-324 7883","country":"Malaysia","city":"Puchong","zipcode":"47100","latitude":3.0269695,"longitude":101.6139374,"website":"http://www.lsttyre.com/","photos":["CmRYAAAAAAJC7pjRLgHMfyntEPpgmEMnwhvuwrPcGN5QB5jzf-OHW98oa-tL4b2Hm8M_eus1gGvhKwlR4jeCD1bBzUpFk0dtAJX6aVrCHhNTa9fy_6Qv-AUR8F7woflc_LmOrYV1EhD-899XJuRjVId9qxBxfVu7GhS1M_vTyDBo5xPvVFe1k4VbI9qawA","CmRYAAAAgbxFueDcwl-AaxCmhz0c7QR4Ky58LcQukyqfBZMzUN5gzrKOtSE15Xxs8Z8j-5UU8Xb1AKQXZc_JpAig1QViURTbm7PWWWAkVhtkPYdSUn-FhnslUo-f9aGBb2LP_cBREhBdbwan2cCKyX6VYRrAmUZBGhRAJsz3RcRJUpVmJWWxvLtY6fB82A","CmRYAAAA6rDNx1Rq5KChVhAi_qOBN7XSYXagoUIszDgpL_QS8umSzSOZzOfb2gpwFML7lJUAUn1Tw66H0oJcoB8a_shF9ra8eoLPvKdINMP1iKuzUyF7rJrw_aGaDSZdnz0SYHGtEhCpteHQ0sp6Z_L_omv-wG6DGhR2W8pluqLLMMXOJ5FQnHqFm61H4g","CmRYAAAAOAjTSQgH8pxIxrYPz_hXZ0nMbSeg2FRFOGhieC8texRsNx1zRVogEjVHrY1fbQeoiQXjLleKdYVo6bac2F-tV5_DxhIMMHb_2DO6wLJetLni-DVbe2eNxQoj648_G-NJEhCcGInFsIFx9J-kgufTjHIKGhQSJz9BD10tZ7JXY9CyHDA0hi_YEA","CmRYAAAALaOYNKZhKSaQ-u_CZXnTcU4D064AhRQlTYBfpt47_jGaMcl8Y0IafpFEGqKfk21bJNnWxvjXUW4gbCS9pl2nlxljs45p1EN910gHeZ1JL0AhEoYEICiIXJ3Ir4PqL0vtEhAUEtag1nGvIezlzBwVJSH5GhRiAMlwAJpzIIs2Hp-Jlyf4a44DGw","CmRYAAAAdA_uGLX7xFa0BZen13IF8l95UN2577AkLDEKElAGE80t2xG3VyAY6p3-rkjHQ781vOoCNDXnMfmLOslylBnaJfuva9_5Jo5l07y4KnaPDBewxIvnBEr3fpX-Q_4HD3tvEhBipl4NZh_bSYNeWTztcXprGhR9HKy1Q66gt70Qk6106WHznOIi7w","CmRYAAAAg7uCQeSeOB0ME8_H7N66li6QPMM6utYSNeGrCw45jVyjJh1HnaTWvT2a2YmsmwCNFCzBywAi2ZvNs9MfoQ0qbjwwEiXB6qw2h6HP7o_42X8PvGisB69lnMx-7GuBj3OHEhBBNlrv6beh6Q2pSt9Bc_59GhSGh9tIQhcCLyXw5xBmAUD1UE_97g","CmRYAAAAhoqcoY_0ZuFjGntgAZLE39jzWQXrt1aaDKlOtyrF7O8vyctc97bdiLBfUIKgDe41hAVaaCeXY3qYggIyX1OY0d5O7UO6BC9XBmC-8Qfsq9vSEBxX0naJtjME9onKfG1jEhCnXQbrlSuYHL-MBwPJPjdXGhTsaLkwPZUKdlNzpLgR0YoJATUrSQ","CmRYAAAASBkLtdpO_JDI4EZF-wk9oVOUay2OoaaN4Mf3vmF2CN516C4r3TOYctd85RLfET7EVKbkhIJBLJP1iFPFr-lAk2XmyrzDHY1l22j-NCZDdq9YPHt9xUH2s_u-mk1wqWEJEhBrqC8w1s5u9YMC0hG2sbbJGhRd4w4icv8bsC3vGIC8KRy1j5WlTw","CmRYAAAAKY4jLc_MvhREyQuR1fXoRkZ3oTvtezPhqOcUIr5tP0qFkR-CYIV25CsafR4-SdvnJc6eBWzN2BaW2i0TbfChnIdHEgC68oG1IMoD6fLFncUDwKRjXCwM3tgITtZukwxfEhATIiXom0UXOEbJlXENeqd9GhRPjOORQdmXT-h_TS4MSpXDh7RomQ"],"placeid":"ChIJJ9q8L1izzTERnJZNQFGd2to"},{"name":"Hong Huat Auto Service & Tyre","address":"19, Jalan Utama 1/13, Taman Perindustrian Puchong Utama, 47100 Puchong, Selangor, Malaysia","phone":"03-8068 4989","country":"Malaysia","city":"Puchong","zipcode":"47100","latitude":3.0027571,"longitude":101.6089638,"website":"","photos":[],"placeid":"ChIJqzOEdnuzzTERcS8XiDNigIY"},{"name":"Cysl Tyre Trading","address":"17, Jalan Bunga Raya 1, Taman Tasik Jaya, 70400 Seremban, Negeri Sembilan, Malaysia","phone":"06-678 7837","country":"Malaysia","city":"Seremban","zipcode":"70400","latitude":2.719634,"longitude":102.0027859,"website":"https://www.goodyear.com.my/store/cysl-tyre-trading-sdn-bhd","photos":[],"placeid":"ChIJI5tTgh_ezTERynnNWkA_chc"},{"name":"LS SOO TYRE","address":"Taman Amansiara, 68100 Batu Caves, Selangor, Malaysia","phone":"012-383 6027","country":"Malaysia","city":"Batu Caves","zipcode":"68100","latitude":3.2739142,"longitude":101.650476,"website":"","photos":["CmRYAAAAFBO7_y6Qdo0U6JJF1LwjOF7ershGPaQ_JZ-0mtXxx8LC2AzcoX7Av5mqRSBIGRnlfGLKgcvEwlrcKYU75OyRIbzN1oh4GK5cuBHkwhsGGf1s-3wmT0qOmkWzUp_irh9LEhD8enaWVtXCiVQh2rQdjBbNGhSKOrUqp2Xl_Hpd-Ued9AluJ1UwCg"],"placeid":"ChIJCY8ljS1BzDERlCqkdaZK8CY"},{"name":"PJS Tyre Auto Service Sdn. Bhd.","address":"485, Jalan Besar, Kampung Baru Seri Kembangan, 43300 Seri Kembangan, Selangor, Malaysia","phone":"019-315 9122","country":"Malaysia","city":"Seri Kembangan","zipcode":"43300","latitude":3.020352,"longitude":101.70421,"website":"","photos":["CmRYAAAAW2T3JdGq4rqvQZI38hKbecK1MQ1S7-7abx6ldwyn9DSW-sPo9hjzhhDadXvAY5KOYrSUkiJX8IZo9adf_WY7k6Qd1WxeALz4ULfh6t1BZWtLRSXP8JUQc_AAz_xSRUZiEhDAHJGsgbxyehu6Yxo2LOKIGhS1zWPwG-_IjrDKpuGaLEEK78OIoA","CmRYAAAAlNwRSto7Ue__hP8wxb2Ghd4Cuuv17YHwbWZShWfaum_HxB5kUcI6lckSNKo1HJ5HHNM64C6UdmKXO-efvMQDi2AepCLcyfLXqBE_Ib-5KG4hpn6tBPeQSt6gXLFvMh-XEhBe_nVHoF-jSNnNZ5TJHCVDGhRgOn0VL5e2VkVVh2iXrlX0_svBpA"],"placeid":"ChIJI7ik_Fi1zTERTS8BHAGRx50"},{"name":"Golden Tyre Car Care Centre","address":"Jalan Jaya Jalil 1, Bukit Jalil, 57000 Kuala Lumpur, Wilayah Persekutuan Kuala Lumpur, Malaysia","country":"Malaysia","city":"Kuala Lumpur","zipcode":"57000","latitude":3.057686,"longitude":101.6741138,"website":"","photos":[],"placeid":"ChIJYZcAyOhKzDERVE8L2zeaxGc"},{"name":"Auto TT Tyre & Car Care","address":"510, Jalan Ipoh, 3rd Mile Jalan Ipoh, 51200 Kuala Lumpur, Wilayah Persekutuan Kuala Lumpur, Malaysia","phone":"03-4041 1818","country":"Malaysia","city":"Kuala Lumpur","zipcode":"51200","latitude":3.1822209,"longitude":101.6815091,"website":"https://www.facebook.com/pages/Auto-TT-Tyre-Car-Care/201695673324751","photos":["CmRYAAAAD6uv2YleTAVJXdotOTyA1nSSeY1OJ665gudPjzJA9C0xcRL2GgzuHb2ClwPcBJKKmStPwJca3Ak1Mpym_s1bslKhAR2LF3g5uDLM0SECsf9GMAPZVSS8Jo8CVUFoKfByEhCz474KB_GLV40enN6UH6JVGhQCnieQ5tzdA4gN1L9Eb4_qqiPTeg","CmRYAAAANo6bpOT2ZxmOEbqTIxlWGp0IfdGu0-B3lgTr2YWKq1efAT9QC5flo7psxpczUIvqlrJSxHCJ2wmHzQBy6OP220vLQhu_xXBJNL0QN7pDAZHIWeV2Zt-XLQz179HNE5ihEhDS3virtRLAQBTbwweO9rTvGhS97M0HZToC7MaZ1b-G1wMM0vpxMg","CmRYAAAAdUn1aTA6WS7hJbwk4m60-5DALkRlD87799_6enCVgeLyW_wlpIitLk-kO8-1x495ECFIPaGLT4PxMLn0Vbh6P8Q_lduLZ9GwNABYH0mWH3mK6LzC4eLHxh86F1MAGNNoEhA_w40Ck3zScWvHBdzTKAqQGhTQXLaWLQtestkBFGhD8iX5AJ9-kQ","CmRYAAAA0G0TmObntvrzYCQkVS31PJB0h2LmbexCX9QtQ-BLhZsd89d93B68ohpGJoOzHjwZPF-a1WYMGPYQ3FzAiqvY7Jk-3TQ9qnianrAkKE07-nVZF0R2s3ur-A0-pcIjhqxuEhDCutU4JArS7j-X7iW8I6VsGhR9t46sXeYA4HvmvWvUb7IjO6LafQ","CmRYAAAA11ZhWjL3daHRR7OxPH9Uzb0Ewx0CZ6qL2KMkTI6h2UIhPezoen10BnQerMjoX0sz3VUk77tz5aG4cYvnkb3oqd12M0eAD18celJ0YNJwMmxv55J46U03RqVfO1DF1gM8EhDiB1zqDl26eiTY9ZDnVe1-GhQPwVfTHyeYTxPCiTV6jfvWMt4yag","CmRYAAAAFVFSIcr7P2uAJnOmptIVgDMhNbBGzELZ5pdeHILMUEylUiSl2BODcA-dtgHmjzzGUBQ9AqOsCP011q39fr3u_qRkFM4bMJ20v5G7_9U-5OuCI4zZcu49oWWOCG1TxsRbEhCHvfu7idbQuYSsH1iNJZKbGhQtF3oJtZkug9hcsHfs4DbNFmExfg","CmRYAAAAqhXUgQnPtu0SgGYnz-hhjwVHFoqvBXlIs3b5ZD2dergFNRIBp4ZAr3AaAIfL6jpIUo4Kt6yEMOjBfGwWDSvnAPwe_8mGCaWFzRfXAOEe7fihdePK-RGmi59zpniJH9kgEhAPecAWHPBZvPkRc1b7Vf11GhTLuj91jjXUQ4uUOg51Ab2c85mDlw","CmRYAAAA2SsTNmZFwKZ3Z-rNvcnL-lx-CExuqDtt2llFHYTxffGuFKNLx3PSuh9G_S-Zd1NM4Z8-seDRZ2CvuYAJrk7SMYGmyv1NUr2Z6EDpEgYkUfT-3vufVINd6fQeT28tnsH9EhBClPby0yxXADBRZZStA4k8GhReuaMlT8ITO0hgSk1NqOCJTqMS7g","CmRYAAAA0mD_Aw9KQwQtbNk56e6o40ltcajJYXOTPRhFgSSL5uUhYJaojjc-X1Ld3BMWfMDqrLCAdQWHihuR2_6uPJqgH184nSy5VxEPSh4Zt75dV3qjdRbRaWJ5Ll2QndZ6mL4REhAzrrZxNid0rkB25xTBItidGhQFvU95wYNABmYeHsiMXU01F3sG4g","CmRYAAAADnEFckagEzF1GiHmsvCE53sreR2DkcGSVh-YVZVKBMD8BJuJxXW-frXLcMRwmd7ksHstWlW0_8yyI38UviVuDy5uAZEesnjHktX-rJHJF0vbA6PiQu-pZyEYk7qXdMGMEhDGGNPXyD28Y9PtsvL8Z1sQGhTs5-0tOPjtJy__St2TgRJXTXNyVA"],"placeid":"ChIJ46LqYHJIzDERYZdDHXDdavg"},{"name":"GASING TYRE SERVICES","address":"No. 123, Jalan Gasing, Pjs 10, 46000 Petaling Jaya, Selangor, Malaysia","phone":"03-7960 1058","country":"Malaysia","city":"Petaling Jaya","zipcode":"46000","latitude":3.1077399,"longitude":101.6531679,"website":"","photos":["CmRYAAAAigrrlbhknKKPoW759ACAFC2jVtsnM1MIh8uLvfHz9fUrnEf8CJT2mLoSMMbGqF0dWWDlxLwavvUUtTPmNJ7RY0PZz18FdE6C5X3V0OdlZzTPxJUbJQBg-3C9A5RAvWOxEhC0vbnozbq6NTukg1oDkZs5GhRzJt0ry-hzYOv4e4NjujZ_2d_hEw"],"placeid":"ChIJ5Zw9LdFLzDERzidtLDv1rDA"},{"name":"Sing Lee Hin Tyre Battery Service Sdn. Bhd.","address":"46150, Petaling Utama PJS 1, 13a, Jalan PJS 1/21a, Petaling Utama, Off Old Klang Road, Taman Petaling Utama, 46150 Petaling Jaya, Selangor, Malaysia","phone":"03-7781 2619","country":"Malaysia","city":"Petaling Jaya","zipcode":"46150","latitude":3.080577099999999,"longitude":101.6432754,"website":"http://www.singleehin.com.my/","photos":["CmRYAAAA26nXWkop7Hp02ju3nlTfjw954yp82TTix8ebxaoLpLeBEyOcUxpYe0LA9piAOyDw5nh4jcGgS1GATl8aUHOAu-RKaKHySm_R-D4FoDvGtTh7faMo1Q7n3kBY2vNU-sTcEhBo3ewoX5vzi8SvA5pFr2qfGhRBf5TrNgXP5lSYRJAJzFtgz1q9gQ","CmRYAAAA6pHBqbqDCWdLcOzq1t8Rr4OPyy2wXAQbRs-hji7rX1ZzcV3fi5wFqnZz2E1Oif_WMmXUt1s3KaRV28K1-heyvLppcEE4p9O2GzkKanVnGfdnW9ZE26BaWqIYvxyVC0HtEhB3exmxatIXZtaE-ebXkdnjGhRXUepLasUMyMwWPOpGYGzlPhCKfg","CmRYAAAATp0LCXokPqJVnHjFPzLJLFmWWKngEER-zloMBGOFW13ym-MgApCOHPy5-37pK1S--Nqm0p5lwjbGKULW9lak0KE_S_3VaZKXlAOjrXyylfIPC65qFOLqtD0lQZFNBI1NEhCcVyeldDsH9pk7hqobh07cGhScQP-jmWC1aL8I6vMU5wEFgt0e6g"],"placeid":"ChIJI5rFlkdKzDERwcn0Cx-BToo"},{"name":"Kit Loong Commercial Tyre Sdn. Bhd.","address":"10, Jalan Anggerik Mokara 31/50, Kota Kemuning, 40460, Shah Alam, Selangor, Kawasan Industri Kota Kemuning, 40460 Shah Alam, Selangor, Malaysia","phone":"03-5122 2418","country":"Malaysia","city":"Shah Alam","zipcode":"40460","latitude":2.979752,"longitude":101.547632,"website":"http://www.kitloongtyre.com/","photos":["CmRYAAAA-a-jhQJLZ8TjPGGEkOgftC-6xMwMAtmGRMHW0HD6iPZcFuYaQQTK3uX2EFPr7c-D14M0tJWFxD-mDdoD3Z0iIjgs5KOVbreCohBPQaNBuFOqay4ZcwXGkuqetZq6GgL6EhDf1z8Vyai8DS8u3qjHKvzkGhQHmUBD-YPHfKZ0DBKQ53QIQuuhvg","CmRYAAAAHVBdeNuUptiJQWUrwR4h_EjqwJ--ETwbvC5Lm6xd50MewcJAn1-4nsCmyRpndiFQPDmDiJAl72GqqIOPZ0Rv4Hwe1RwqYeO0-0CRd32kuceVNbGukIRt7yX1dcDaWOR6EhAVhFvNC49hV5c6lMICwm09GhSNMyGn1dhoYEd7GBgPgkP7hjg7og"],"placeid":"ChIJlx_-3UGyzTER2jkzlCSLm28"},{"name":"Chin Song Tyres","address":"Ground Floor, 4, Jalan Kenari 10, Bandar Puchong Jaya, 47100 Puchong, Selangor, Malaysia","phone":"017-870 3322","country":"Malaysia","city":"Puchong","zipcode":"47100","latitude":3.0479644,"longitude":101.6225216,"website":"","photos":["CmRYAAAAp_hx1QFQDl-KdXgjUmG2yWMLzDOcLSsiVPl5Cob5p95MAStlBfoYpnmXknM-CLPNZQBo57ObxPpP9eK2DDOGv7URNc2BzpvZjoTt0J-SitZ_1YI_F3ku1t9WF1TvCDuNEhAwWhvfVwhyIx4utQu1Lp4BGhTErcnD9A8bC_Zz-vCEmOm0J2tm_A","CmRYAAAAMhRNnWfAzf4w0K8PtER0RVwsivRwWayQWNvKiIRiheKep3jwOP3gmjXlE-ql2BfSjpn3rctBIpdg3WItUYNyx73F-2CY7fdRV8UykP2vNm7dYllza3jX5I8CALGjqmMwEhAIUtvxPZYzIFOHe70VB5mSGhRPFJJTmVh7Z3htJ4PlXTVYgxWnZw","CmRYAAAAWxvV5XOtZUBroeIKG1WaCqvhk0j3mucD2eWxUl1xgOHa0Z0ZT4XuKSOntJSAkhk8ebP6LZhEEmBwCMynIkndON4grZfCaPF7AvDD1MfDVMACztGn52tN95BP5_bmh60TEhCqegpDOaxycwGVCNinGbVzGhTvM9fru7ST37xykNjT9K52pss2rQ"],"placeid":"ChIJaSuA6VtLzDERjkLMVatBuos"},{"name":"Len Sheng Tyre Auto","address":"1G, Jalan Puteri 5/7, Bandar Puteri, 47100 Puchong, Selangor, Malaysia","phone":"03-8062 8896","country":"Malaysia","city":"Puchong","zipcode":"47100","latitude":3.016925,"longitude":101.6146102,"website":"","photos":[],"placeid":"ChIJdwOtn1-zzTERXbZL8_fr8c0"},{"name":"Oscar Tyre Sdn. Bhd","address":"1, Jalan B 34/B, Taman Perindustrian Bukit Kemuning, 40470 Shah Alam, Selangor, Malaysia","country":"Malaysia","city":"Shah Alam","zipcode":"40470","latitude":3.0039838,"longitude":101.5027569,"website":"","photos":[],"placeid":"ChIJWxJT13KtzTERmh2vs8SndH8"},{"name":"First Unitex Marketing Sdn. Bhd.","address":"Lot 1316, Jalan Padu 25/127, Seksyen 25, Batu 8, Off Jalan Bukit Kemuning, Shah Alam, 40400, Shah Alam, Selangor, Mutiara Bukit Kemuning, 40470 Shah Alam, Selangor, Malaysia","phone":"03-5122 1168","country":"Malaysia","city":"Shah Alam","zipcode":"40470","latitude":3.0212985,"longitude":101.5283362,"website":"","photos":[],"placeid":"ChIJNbF-wKayzTERTwFDqk71XNk"},{"name":"VS tyre garage","address":"No. 8, Jalan Sri Puchong 2b, Taman Sri Puchong, 47160 Puchong, Selangor, Malaysia","phone":"03-5882 6222","country":"Malaysia","city":"Puchong","zipcode":"47160","latitude":3.020729,"longitude":101.60709,"website":"","photos":["CmRYAAAAGJ2lsO_PftJC9cfo7OIQvbDcfoPwzH5o_MPoQsbQMQiweN7dVhFwJ7CObkFrpxAUfLafcmOAHb8mTWoecUWFYe7cucjRCeMyHVNyQXohsiJNYdnms37v_TU5by4y9-lhEhDf6Tzj7J5NhRbG73V4nxh7GhQsQ6iZ1fXhid3gGknRRQdojA_nyQ","CmRYAAAALERt6StI-0lyz-j7yN7rsll_F9TuqHF1gN1T_-pqILNKjFR9a6YsgCK0KvkB6HNM4p39zSlG6ix4OepBDn6GeLnfae-daz-ZGXqzAbjOUIfKmySqTqcZ8-0Zvd5NgOdBEhA1mH5c5oYs8d6eZ8uFTbfGGhSbPI_i1vZ3hSZH2xGZlWki1aIpYQ","CmRYAAAAjiG9WrS4l_LqxpmbTQAwg8CeP7Az1thAN2NpnjNujdnBSGMbr09ebIDKhqw4qPivGB64X_-w3taK1C6nQjXixpSzLNCFuVb46yEX2qPe6V4JGorYVlmhlgrnuVW3YS4iEhASAlzkENa2LRfUX7O1FGhoGhSgmmP-xEgjivIVXDDtd2Y7vOsztg","CmRYAAAAQaazVrvAh7I7zgrVvHxdqCqoZozHh26WdfzPyKhTFPPdhidlxpmQO37q7msW4d3vWNFoQXE0DDvLSsIeWFFMCMuNBLT-YGQiM0D8iIaDeFb6dQ-pWtYctfDasdlJDUGAEhB9wn31K9KXX8GIlGq2P2EDGhQcv-6zhic2nJTZOORkgr99aP1_HQ","CmRYAAAAa9hzmBCt9xgNEv4bhThmY-TsITfz37gBIIpUMmAlunpla6uLmu-JO-2bDldu37CN8JdDr9wY_nCwNUKbYanVC_GjKkAStz-xOYU-YHI13eSHGUYT_Scs9yhXLZ58pqioEhABc4Z0W_JCSFvKfbZWi5H-GhSqyvgRkGbUHj0rn2hQLGNQsDy7eA"],"placeid":"ChIJMWDJdVuzzTERLv_XWoEqWjk"},{"name":"UE 2 Tyres & Auto Services Sdn Bhd","address":"No. 1, Jalan 3A/2B, Taman Desa Bakti, 68100 Kuala Lumpur, Wilayah Persekutuan., Taman Desa Bakti, 68100 Kuala Lumpur, Federal Territory of Kuala Lumpur, Malaysia","phone":"03-6120 8849","country":"Malaysia","city":"Kuala Lumpur","zipcode":"68100","latitude":3.2422639,"longitude":101.6623289,"website":"","photos":[],"placeid":"ChIJRQJxbh1HzDERpl1_HWR_jxA"},{"name":"H2O House of Tyres and Rims Sdn. Bhd.","address":"PT4209, Jalan Kapar, Kawasan 18, 41400 Klang, Selangor, Malaysia","phone":"03-3343 0252","country":"Malaysia","city":"Klang","zipcode":"41400","latitude":3.053793,"longitude":101.447013,"website":"http://tyreandrim.blogspot.com/","photos":["CmRYAAAAySEtngMD0LnrhumuPd_pBQS1TuxF6tu9tzuYWo43iQ3jB9v7l1Y-Jr3Fh4h8CEeepychN-hMuS1z6LJAtKzTgKgZofkmp9XEwaOuI7xVRiDq2D9B_TxUf5TgVRd8bzL_EhDnSbLphJBq8tdUbkKnl9q0GhRdZ4jGDLt5b9n43JSi8BfXNvBghA","CmRYAAAAP8DH5vL5oRKNAaYPxj4EvoYDakod5bNL_MwKZX6UOINn6kkn_t3QurYM9p05oLy9dKvCZ2h0aRM5pjPsiBoFz1t414RP7SwPwqXlR5qpJcGr7upgnm6QNJYiTMwOdpJSEhDQ_EQ80XDzlZBV902nI8yXGhT_eV3jiuP6SdkwFEe1Jh8eqgcq8w","CmRYAAAAXjuFJX8GdZ9j4NLipL62-2IyXwi9SjD4n-OoRFJLPCKeDq_BICcB6P7L4TwnrNj0VfeufEV_reX8O4c8_OuV-_NNTOEUmX8fXcG7pHRilP_1rLHHwVIlCnfs9LIhyzOpEhAln8Vav9aFWOC3XW8paWAoGhQ_B0aPkzBZbddh2bgZlIhi1tG3-Q","CmRYAAAAfON7nT2581qkE66VK98XT6z-DqYMLdrmOzM4Nqb7cUPlXGwg7ZYFQWod45MDX7Un7n2Fo0GsCCInVXN9rzpJBro4tDui7iygXBsYv0HVecyeC6tllbyv5nrrhA4FKSW0EhATYSGj-w5Pi3GP39SwNru-GhSchsCunNvp23nbG191laZo6_ZZJA","CmRYAAAAVJWxWcsO131uoRfMczRxhJ7HVrC9FfmE190-k4VC6umFMz3FWrmyrVxPchSxzr9Rwbs4Qj-v4PU8Q191VbeKNFvG5UXp58cqVu-j6-gJFEpRuxZupR3nDczWfOHlipizEhAlDbdU0UDzAyiTP61b1sS0GhRmEE1n-xCelzZvTCBEucZhZWgv0w","CmRYAAAAlrrqi7FWPGSzXb0vE-9Yiknzael83L8DRkN1167_ACklJbw_oqLOaRbhUaiTdleE25PqNddn7E954F1xVYVsZ1LSTpthfh9cicFzOToCpRqyHewuxCJiGueCpaisHeooEhAWDWISkox8jO5Xx0JeOyaFGhTVK_pNvoEQ-GkaMQNqvQwSDj_hBQ","CmRYAAAAmoVj9QF1STW5ba_zXlNeSQah4ATN_quQH9orrJ69lYnGdAmS50lEOlBZ0rPHaXLpp62SPAC1q-3LmkcP-_KAdb9LcdE1oeZrD45wF1uMcuLJPGjoSmBOudB_mPtMIs4xEhADYYEZQCRVNKkTucjaPa8jGhSp8HTSI8027u567K1IfhMO-n1Ldw","CmRYAAAA6R_tQzm_NT9AJwsi95bwOJhMmcKN80Tp3OM7-cEdSrF3haGd7OwmUHxXUHHEqP8993QIA7-sWO1AkBK4i0rRaDUSNcDhc48epCXJbNRoNxcnAMaz8rPvxh5J9uzTxHPJEhAKD5nwreul3NuIFEl6F6_QGhTsSOh_uSJ58J0KHLAMkZkKd2VGuA","CmRYAAAA2FryI-7lqE72p6A_iLkPQL0tRmmiXvoKk_eY-W11_ozMkPDFYbjtnb02ZG-s3TOkVV7SGPAnmz1EDQQiN8aVF4zNDdGTUukidXD5rJ84HYHIntgAPdWVwcJ_EpVInxAaEhDOMdwqGPrn-vOio3oPogwoGhSvwlJTKn0Eg24IhUodAndgEPE39A"],"placeid":"ChIJ9VWY5kJTzDERyEppgkDHxAE"},{"name":"Chia Auto Centre Pandan Indah Sdn Bhd","address":"55 & 55A, Jalan Pandan Indah 4/6b, Pandan Indah, 55100 Kuala Lumpur, Wilayah Persekutuan Kuala Lumpur, Malaysia","phone":"03-4296 5668","country":"Malaysia","city":"Kuala Lumpur","zipcode":"55100","latitude":3.131399800000001,"longitude":101.7554743,"website":"","photos":["CmRYAAAAyzZjDR2U9V-OqdmkGztMyJyO2q-spaV_sCCrPj0YrtmmJokEMpkIpnJRu5aboWZg1cXxBXDQzGTTv8lfW8PSglvpsBHFT6qQiqKHPuBJITy-r30LDESErAD5HukdQbkkEhDsRz121StzPoovLTH7CVRhGhQ_L4cfylVEZoEesw_xDZlCxORdaw","CmRYAAAARYtZ7G-FS93wPIxJVAoKkUEMJbzY4TlZ8t6s6m1YaPfrDBmReNCv2la2iknb1_6BY6aSYvuCTxVR-FNs9dM1dAScca5uT6JV4tVkGswJfxgUWKGt56mpR97bTWRcZshOEhBKVrvwlzfeZnQJPmtSRO2YGhTAQnX57MbsOE5z7RMUu1ZeN-KF_A"],"placeid":"ChIJYacm1PQ2zDERUB_PLvmkytQ"},{"name":"Nova AutoCare Sdn. Bhd.","address":"38, Jalan 6/62a, Bandar Menjalara, 52200 Kuala Lumpur, Wilayah Persekutuan Kuala Lumpur, Malaysia","phone":"03-6277 6688","country":"Malaysia","city":"Kuala Lumpur","zipcode":"52200","latitude":3.192486,"longitude":101.6285655,"website":"http://winghingauto.com/","photos":["CmRYAAAAiIJFWI7BtOCtdylsQuW2cQ7NOx-s0ShCHPC8E_Qpy8dQ_a59W996I6Qa41Fy-9bFr1aMp2MXTR-U8Kl57lPqPZtwVRNyAH17e7a7Zdfcseg1VfHQeGIXl8GnSdSq10lyEhAg_sZNFucp-eXuOIts7-qnGhQQarLl7-0883-eLbrCBtR4SGbgXQ"],"placeid":"ChIJM8sLQh1GzDERzRPrkcQ4RHI"},{"name":"SKC Tyre Sdn Bhd","address":"No. 43G, Jalan Damai Niaga 1, Alam Damai, Wilayah Persekutuan, Alam Damai, 56000 Kuala Lumpur, Federal Territory of Kuala Lumpur, Malaysia","phone":"03-9101 7300","country":"Malaysia","city":"Kuala Lumpur","zipcode":"56000","latitude":3.0637137,"longitude":101.7395708,"website":"","photos":[],"placeid":"ChIJVVVVlQ81zDERJG1GpuftrG8"},{"name":"Seng Kong Tyre Auto Service","address":"PT 10848, Jalan BBN 4/1a, Bandar Baru Nilai, 71800 Nilai, Negeri Sembilan, Malaysia","phone":"019-221 1344","country":"Malaysia","city":"Nilai","zipcode":"71800","latitude":2.811323999999999,"longitude":101.8014286,"website":"","photos":["CmRYAAAAxvyOOB4uBYzyFr1lUsx9f0DKmRAABCuLTdR8dfQAODO7ZNBnT8rgaPOJrsXMsp5GvKrAoHbl7ufb5N8tQQY-WdqIAf3QbeamzZAGDEduJDunAolkyweeQfS4ohEa71HWEhBmmwKbpYe9LWBE3hqd6d5iGhRwAUGBjxILkCXXrfuzeB0CBSUyjg","CmRYAAAAaEXumMeY1ud2jRm0xJH-zRnBxlcBCD6oD4q7NdoEy5hQyhB4liak7yFNRmbZyC_yRFSe5xAw3tBgvIJSma2yHmBfIVcYtpAfxY01MYCpzMr963PoYJ-qSDINsIdqR6atEhCIVd2JyI8JMYZWlpbjXKVsGhT6FauPHFltZaS2CZGPK3Ic46HsCg","CmRYAAAAZX4Ra_sGWWLVqZpO0Broc3_gQ8WbMJtMNxoQ-ypqkPL7ya8LngL9YlYM2BzkfW_CLNvqK8bYj9oWkmi4nSB8Tq8jHd8wxFOPo377dxudZD15p0EMqiJCszSqgf3UUK2TEhAKzncAV1AfzOyNp4J8FjeTGhRzzZ_z9On_QLK_17Nu9XkT9GWPCQ","CmRYAAAAlExLdD55KqY36cp4TyCWLR_3h3pdKI_zAn77UuwusTTBETmMs_UTpWOJIDkog_6-Br7oIUz1X3sZSGVx0DGmGhevWcnjxI828mOUnI7QyR83gDn757bOQSVB37m3rABLEhBTWZtSE9Zk8FSxePR98hhvGhT5R6SfYShlIxi_nLCTsE_egsPFvA","CmRYAAAAQakJrF4g17M4kZA4mB56Cbto7dMjxKZrnKF8vWmWmqfi4FsyZfWngGrtj9nIQwJYr_Xeho5CZjMO69d6P3pGbaoIxnP2evEzaCvEVC8J2RMjPhEt2pZgLKDZ60CuCI2EEhAuMhObm_n7mu7d1keIKgOPGhSx9S_8hE-xtMpxK4NqW7AicRdtog"],"placeid":"ChIJ1z6RNBzEzTER6KL2ycCKu_c"},{"name":"ASIA TYRES KLANG","address":"Malaysia, Selangor, Klang, Kawasan 18No.91, Jalan Kapar: : 41400","phone":"012-998 1386","country":"Malaysia","city":"Klang","zipcode":": 41400","latitude":3.053801,"longitude":101.446528,"website":"","photos":[],"placeid":"ChIJPyRLwkJTzDERRZkIQ4_J8m8"},{"name":"Auto City Tyres & Car Care Sdn Bhd (Michelin Centre)","address":"Lot 06-01, Jalan Pahat H 15/H, Kompleks, Auto City, 40200 Shah Alam, Selangor, Malaysia","phone":"03-5523 0788","country":"Malaysia","city":"Shah Alam","zipcode":"40200","latitude":3.063984,"longitude":101.525029,"website":"http://www.kingofrims.com.my/","photos":["CmRYAAAAiwVZDKrJIdW1sWtd543DXD9-GNyTGuY95BVf2q_Ivt0QFiDzUNvCo7OFSBZJLod2YcAmerXzAD_8D2mvBy4f3rfcCZppan7wrRDBFgxSCfICW2PyhI57WEqNMng-JDDLEhBRP15IpyqnFjtPfj-rtZtjGhSCSyAwneN-3-xd4F7JU_hdnhz98Q","CmRYAAAAqQ06Myf8MDh44Px1yzMy2nld-L9DZvlK5rGvfQVV3khlmHPKva1kczNGzpCk3SKnLk8rjxfCEd9O8uA-R4Y6UL1YEsLRcwInUSIl32przS-L1_maAwKcSG58rss0baZiEhCQ0lmM8ptE-t0LRQzGFZtLGhTLKyvUeVDT0wAGt3IZV-6D8eSaUw","CmRYAAAAhw2Hpy2yqJxAvDUbKhLYzWlTrMlUyV6MOMaGC909NqkxvGXYtJMA3O9g4buyCEGizG6pPkcBVzjdAcuoKz5FG--7bbEwmXdb341eoBifdx-wWOr2VSx9m35zhoNqVza9EhDz9Jfbg1uNzLSPLNCaJzxkGhSrTSO0RpxTwghNiHPK5q368t4c2w","CmRYAAAAO0QoKchHNBTpaO7zXPg-gJr_QuGIjyeTGTy4hNcW57-__R98Xjix-RF-He9MVahHOReBB-4B5SngqA2uXgSvlzuU7M_vn-1cCdrnR4FlWAcP4CHzV5wv5HSviKHrPHHvEhDx6Ph2vRiQ_YPJVk7dJba4GhTeOSevgoxJk9kNJMvVEiWPRiEhkQ","CmRYAAAA1z6lBbE5xsOp3XcxL9yIUwp2QtuDt0UOZ19fR2eU6Uc7VX55LUbeQRYDlxUM4h3vgYHU1Id3TiyezYJTvb0QeW-ZwdNeEgyuXQBJ59JzA4BFqxEQ8ys12NGs5wW7CNnAEhAo7Gx_Zkwb_X34gmoyEB9eGhRWKJg77wbSoFaQVwPm5VaKjwg2HQ","CmRYAAAAg7EZftQCYWf5zh3AJ-zxFQMnn50uR0PDmNRWpfk7kB5Cs1r0mUnnw7PcChUviK4amNCxghNWpr5ZksTGtdMtXwhJHbBYuqwfaV1EUjHDntxdEtc_Gn38NbgmQIHGN2ogEhBDOLuCkRv-1V7gHtPNZlryGhTrMfHs7L7n3YJY19KFfDbaT3ax2Q","CmRYAAAA8CkVhMtd6yDPE9UgLN4qB8odjXFI90BqM0cKmROyiiKt3dkj90YT5hBd_EozjZnsu-ngMeQVMvituJvIXw4K9PeJCUMr6hJBGtUPc4NzFyD8O8biu3l0KejTOOm18ghiEhAJVln40n5776LD7RiHkhG3GhS_EMcURN6wFDdxi71xfDzO00Mw5A","CmRYAAAAPiqZrq13olW5oRHtLf7YuLpWAP-cdoOMfYanfXi9ZE0EsJ_FD9fI5RCIICXQRZtiZxNV0pGCxhaddUwSvsNZkms2wmgB7Zlia4oPqnGI6dGCYfqdM4hiS-WLXcgBVDJsEhAaxjVGvxS5M33GrNHVKwDPGhQPLDTMD1LhuL6wtWvmW3XCtSQvKQ","CmRYAAAACnwBh1OAv9zYnmRdhbGvaq1p-9tp9iwU5Tm1JU4POfhML3_SAKzTO8BgCSNeBFIxJttOYtvVAMS7DHq9DIZdvqswlfGXnDV18myDcxR8WDLKgiHEwMCNoNbuKkYy1bcPEhBKZ-Zb3java7_LbpHRmFqsGhR0E9VLI4B08hZ6_mXnBir0JnC3Ew","CmRYAAAAHONgwFJdlGGx0F9IKen4deuT7CA1ZddArES7vb30ZfUbJPO6ms1UDWb4_1n6TLJkXwvwmPVRvtSIDojBRR_647XZGsKQHUJzXC5lRz3d8n2QwyQsavISr-1ONSj55LojEhAU4JDGnBqDmegvvPo3Z7GfGhTK-Pc8BG0zdGyk_Q8LCWvTI7jMOw"],"placeid":"ChIJCTbDpmJNzDERpaLwsJb4qs8"},{"name":"MICHELIN bandar baru bangi","address":"Malaysia, Selangor, Bandar Baru Bangi, Seksyen 7 Bandar Baru Bangi, No.22Jalan 7/7A: 43650","phone":"03-8926 9068","country":"Malaysia","city":"Bandar Baru Bangi","zipcode":"43650","latitude":2.968896,"longitude":101.774326,"website":"http://www.facebook.com/pang.tyre","photos":["CmRYAAAAFeY7HkNE0lNWhQGioMInVVDagUFB5hJi-gfo7qlJarLq5u6rTsq7LrMcwisvGmuiNl1L-e2M-W6rMo-71rmCkdz-Bg0OdqVKm2uArAn8wnQdbxrh7Nw3LGIxHWIQcuKzEhCm0Vj7j3PUH78xlPdxSVImGhRXwpbeVRu4z3B_ZLkOTcs1cctlZw","CmRYAAAABhCDH1pdBo294tKwdqp3ISVSZqrW1ELrpn6ubncwWhnjqEVibZNfHPeXvJ1BeR-_ZHavLn4pmDLVK57Djlo8UPsZab8SBqKKg7BR6tHnBOTcDF1nao7Bil-pgDFlr2jcEhA32Z9dExM1gxtjArcNZ1GlGhRc7ozCNIJlOxhhIv_Yln4MDoKQWg","CmRYAAAAMAoOyBeLl_pK7ny9h9umztaP-NUoTRWCL2Hf3-JjzCuZsF_4jsXTg0XoAwHYM0t8Q4XaykYsfDBWOJ1MNkJVVgcpFOyZtx_V4A8nrlry2Umw_ufSF3MA8QcW7Hb3yXL8EhBY3w3-lXtRMZiLn7FCIgZHGhQLC9z5P2ooC0taF1iag1gbh3tXDQ","CmRYAAAA3mYQTf75xQLHuwp649ObMs0S8Vawniwj9kifwzsUo3uWAKPJyKZ_hWR32y6_o0bhEE3j7hy9WbZlOPq9jTrruD2wmpJd1yljj2t7qDVw5dmDTQw6k-VaFYBu0UxcjvCSEhC6YZFmM_sZyG2rqOm21_L_GhR6dRHMTks6GoPAP6eashVi1Am94Q","CmRYAAAAnHnbp1cJqAqgw3uSsjp6TFupOFTc9LgiO0zZxd87Ck4VXc1O1JXNtpiv0f3LCYVAFWuD6U89diyJgF3HKQ0mwD2b53yj5omFYgh6cShsH0Pfw2RdeqsiiwHwXDDcV_T4EhA4EB7-t5npI8OfRTK2IMo_GhTiAosrgpAl3_mDU4S900_4g0gP6A","CmRYAAAAzdYOTtHi94VYhjYlGI3MuS7bWPcPdVZyGbHGwQGHV7CyBxTP08WxVbGGa1G_cvX5Udesd-sxNrLBHWK1jk3wiyUYmprpTUg8f9kaKeLBQgf3J8IUrUhTxGHR9o5pXmU9EhDZO00lW_o_JoxbuSciZuJcGhTEnnoKlFfxjOvETb8JWruemY_3Xw","CmRYAAAAcgRIG9n7rxBYcVEHCzFqkbVEMc8IF2afL2LYJ_CWjmKUuAACl10K0BZlTFqXnsBcva2HN7n_BfH_fSZH1BjmrS18ESl1lI3ECw_SMInIyrjePGcJ9Mj7OWHbUk5AkAwDEhB_c3RY2-5xKmJRZ0byjxcqGhR0gaDYzduYSsn26wrBgFpj8GXCFA","CmRYAAAAjfgHP0Vu4qKgdhMFIHb_8eZqsQveaVUw5Nmzjc2ay31yZHdq8iP17ieTWYFFYe4v_f6RzWwkXCAz6_RoEqxFQVrw6XXITTi_tl3wZ4ilV0Bn2WpYEEKJ7EKqFxz3XTsUEhBZkX_Wph6f85GZcRGdRdjUGhTcrBxnfLJP-N4CwbcIaxkDmRSmbA","CmRYAAAAPg0zhp9-PmEWYyY2YKJyL4D8Xyt3Nj7p9nOoTRVlLb3RuXt4_eetaT4m7opgZGxx4khyjqrAaX8m_GFbcRC6LFeEUkwq-LJy1ifz0HIRpK0tqR4uw_foIlQV2ps2sTVnEhD9b2k9frk5XFyHAc_XpUQaGhQ_zlTVHlUkhspOML3pv0z8YzHaGA","CmRYAAAArYv4ERGdVW4ROVJ6KtsvUuS3IlLs78nBAbBcePPqN4bM1rGpyzU2wuDzb1--hxMft26wtwx8RPb9QFMjRFHIe27u_Yi3eO4zDrY5tutKjQbVrN0OqPjsVmJkyVW4rzziEhBCgczCDWyG1Y19ZwMnIXpYGhQ6wBgl-BhxG9JjGWpqtgoFMmzoyA"],"placeid":"ChIJZc8IjerLzTER-xfMaKlNKKw"},{"name":"Chang Sheng Tyre Sdn. Bhd.","address":"No. 4 & 10, Ground Floor, Jalan Merbah 4, Bandar Puchong Jaya, Selangor, Bandar Puchong Jaya, 47100 Puchong, Selangor, Malaysia","phone":"03-8075 8785","country":"Malaysia","city":"Puchong","zipcode":"47100","latitude":3.041922300000001,"longitude":101.6175646,"website":"","photos":[],"placeid":"ChIJq2aIs1dLzDERoEgbckzuHBU"},{"name":"PJT Tyre Auto Service Sdn. Bhd.","address":"34, Jalan Bandar 7, Pusat Bandar Puchong, 47100 Puchong, Selangor, Malaysia","phone":"03-5882 0612","country":"Malaysia","city":"Puchong","zipcode":"47100","latitude":3.031882,"longitude":101.614792,"website":"","photos":["CmRYAAAAyNp9DyLxRxmzMrxoF90L2EOJhZ8gKk9s46JJCUIlYt263XcxIOow7SUcYqnaeBwhBcgGWYZnXcXILljXeWY0SkcBWCayhr6Tc8fUplTTmH9Ew4lyZG_zv_cDk40v4HjLEhDu6t4SB-EFkhQHDEdu5MLqGhRwHVuA1e5Z6x3NsAk5fHbuEA3VGw","CmRYAAAAUfqbpkm-NWvrIB9yLKPkus6_hQZ8svDAH6QE33lfMKbc9tTnL6wv-Tv8rmg9-Xo-BVAR989zREua68TsI5eb55hFcb13IUbJDCmRox0_aEbHkEmAhgdtXG_wLFdKum1xEhDfbZVx_JfeXKAkNvUMGKG6GhScl3Bu2VIbBfquuja5kh071hkS1Q"],"placeid":"ChIJed7Gd1WzzTERnfGgYaSS2TY"},{"name":"Rabbit Tyre & Auto Service @ Petaling Jaya SS2","address":"191, Jalan SS 2/24, SS 2, 47400 Petaling Jaya, Selangor, Malaysia","phone":"03-7865 8792","country":"Malaysia","city":"Petaling Jaya","zipcode":"47400","latitude":3.117011,"longitude":101.623008,"website":"http://www.rabbittyreshop.com/","photos":["CmRYAAAA_dMO6lNFlpzdSuIP-JNyAnyL-0oaaDsfgmMseqxYLCR84PysiJXqJqn8GcF6KYSm6nTAHrleYhhweRrGyjCxO7L_57HEDu_fTkYWylMZpqfJRYR1ZCXe8oFANwsCgK6xEhAYYA7BLrF71bf7CULSZIKDGhTEEd2JktnntXveZC1Pdf7hIYKyLw","CmRYAAAADiSa-JHKv4c0_LvA2ljYb0_JCytT5CHLvK3kzA5blh-xOkVBUj4X4d6kh-FueC_UY1OX-tkzTS2qJ8tfb3mmWyPGmFmwD1wregxqkm04DMi2acQ8KlkIQ1zVS0AmhXbYEhDI3FTWGKW2vYOTDIGpomaNGhQkVLvMRlQEwaK3ry6Hm3JOp9VaUw","CmRYAAAAi8-ChlJEdMiY0aH7zMs9SXW22W-OpgPN5hurbXWq7m-OAQvntYFbwUqJya9Spwg0a3uSlUY1_yYpiDJMI5pMgNXO75gKa7FsistRwpQOF_Z2-RrgYUXytZU_6CJjdkXhEhACQq-FS25hJ-DK_d6xfrUnGhTgb7ucZnj-kzAdq0NPviq7XCpe9A","CmRYAAAAPORbH-Ep0WcTsMu87-ot47QJhD0nwivhzEC814YYpAOO8SFReptr_tHL6dy6_pTCwk_EodFKoc5qDDXc5jFcqUWZ-hGgg2tj621ow4bL7_RF6Wp6O6p9hKhChaJUJTr3EhD-SPr2hT4OxH7KbaeXlnLEGhR2w4Rgmlm4r1IGAuylptxj2HpZjg","CmRYAAAAmmmcMmtEfOJEzLvtSU3rhK1xuDpCysKvxAS3jWgisyl5njaa0A2DXi3AzNbmmVi1PG60dnQJeML7QJAuJ7eUbhx-w13ZmEEOVaLVAn5G9DZj18kZUcbTWnuWtISLMJfgEhBe26SvbnqxmALVorWmZEqoGhSd19ouG47VgooI0M1XmwzXWpkF2A","CmRYAAAAlimlLGM20BNIAlWVQUlx8e0zd8sD2d9IUJ4EqQDdyp8m17X9WgDSgdxjT4kjU6nJbvnienau0vGOW_AzHnqncyASK6eI-KT4oqZIMo22vY4XcGC_hnjJVeIoOR9x_4HwEhB_gFfZOkna4X31VkP-M_5gGhRuBmqx2573TG2HQJcQJafeoR5wBg","CmRYAAAAehnn-jhaOvS8kMpTMvAuKmbgqX9lBPfO8A3t3H4HLvzNihOhY8AE7xD1mUc3np6QW5DyHslWIAnoxh1m9Jvc-Ph96tTFnNBwWZp6VjRZGcuCchn62QXHIQeHE2UScrnCEhBQoYCZxMvXLy-tRtjfs58QGhTo1FXMA4eyMm5Qw2HO8_VvbBMj5g"],"placeid":"ChIJBfmAx1ZJzDERRnG23uPwcpw"},{"name":"Speed City Tyre & Trading S/B","address":"1971, Jalan Tok Ungku, Taman Blossom Height, 70100 Seremban, Negeri Sembilan, Malaysia","phone":"06-631 3868","country":"Malaysia","city":"Seremban","zipcode":"70100","latitude":2.6966235,"longitude":101.9470995,"website":"","photos":["CmRYAAAA7E7ChmT1vE5aRVUG8uqbIglYdLdpEBB9OeVktRzBZPlXHlnJL08AGEZBm2hkQK1Y3RZ6eMZeEEqIpvsE9xAdGDJkN4keNJV77Xt8MyD_UtIkLSzU751tG1J74FMOrwQAEhAVGzaLpWDAME2mI7KGN9OoGhSJkcD34z2moP7g2jK01SW_fPwqiw","CmRYAAAAFRmuvmIWee9X9s6ghDrb261R4n4avjoLu4GKsph3IT_Xa-UQ1-PWx461PkMzQ6S8X4tXev-D9iMxC4rOmlGA_4lYIwpmNhbrYwUCKlIw7JcS8DOm6bQKN8ttKKDOdr-_EhBhV7MWyhEIVLQhk8o79mX1GhRm2qw1ub_RW2XFqPOC-g_kiGKCcw","CmRXAAAAQCUafr2C6W2-wdRaS_r3nD2E7KqRcy1gpJKSIkDIkNFOFQEpE1ZDuplXAc7LKwTWT460dSKwtWD2EYI831hTtwdktfE05sNbvVYhBxfTtPbvwkfgqDm3ONuoBmTmChSxEhDp3EuUfbqF7b5ivcoESLzMGhSbWgXaa4rMixQXw_htw8aDnbevUQ"],"placeid":"ChIJp6TSjxLnzTERCcULoUpFhsI"},{"name":"Nova Autocare PJ Sdn Bhd","address":"76, Jalan SS 2/24, Taman Megah, 47300 Petaling Jaya, Selangor, Malaysia","phone":"03-7803 1933","country":"Malaysia","city":"Petaling Jaya","zipcode":"47300","latitude":3.113178,"longitude":101.611204,"website":"https://winghingauto.com/","photos":["CmRYAAAAkIbhtkOyPQtJSt-dJdaRUOU1exOZthRgOgU-A8UzoasWsmzEOn4-WDELpMkfpTzxg-SD3CpuFCPxCsfp4nSRr6NDBvKOrpto2toPukO9qRQ-z0_BS2ncUTy9MQ4VhfBdEhDclfYbc3tbA2ym1tdtdCCbGhTVq3lcwuxMHrDrxA0Jp-681pDF0Q","CmRYAAAAtc5ZVlDwKe2WQ7SlrREF73II4cuMrQ1oYiDZu2JUQMGWn4vMXzHue6fw5E-NktOLJuaGYlsUm12f1RYEA92H9fMhiTD36fPtlZjjxZivY58P_6kG-DH9Z2PLQ9rM_065EhAA03hpDBMpjGKvGVlWY721GhRDII5USoWy5n09ZkqL8jNI_bF82g","CmRYAAAAOTZnr0os4qkIH9KY_IPCx2Fh-NtMfcwW_o2s2oCPBQbEZcKfqDc79lBTP725frkKRxwDq5aounV3NVLwKvQeGhlXbwrI9VNXcmoum_AHi5tIUQAhSqDGXY2qcB0sVWYEEhAsD9wB-EduNrJ1S9PZoQmiGhQedvuxIfmZC1_NMr0rjgk4GDoFzw","CmRYAAAAFehDwymM2i6zdAXsTot0fFSs0iRne-e1HqMpgjzjYTdfXs9BtwAxkr_YFdibNvoKzsxIxpubmMcTJixrpNBlCJ0F5J3wOSv6Fx8tooC0S3NYvQxQRaTpWD_b1CqVEC2jEhAyHh5gCTQJtJd8wqWYXwdvGhRUrvN_9Z6PG3vK0aOMLOeEER-WtQ","CmRYAAAAUNyeUgScDnhzlvWkl-ZlL-zTz2ocEQyxf63GCPlnE4ITTPwgTTdtTGtoRSW3Bf0j2bZ4AQYW1ZlBiXjdiKK1uX1GZMfNzXDDkKyK25L4ykLZcPeUASaiRH5B8IIpmTvdEhCGOpksaF3UsQIedxJdMhExGhTTs9RRv9eqweqK5Hl-qtzSia9PAg","CmRYAAAARnoAD6Neb-ZRFTv22YIZ2IAMuNbIiDJ28szkzqw7A-J2UO5a__oQSc4Dv2vvWb1mbiTOwkyK27ySwlkuN-mWq9b-sIW6bC8VCInm2qQjQWu1D9fwJOSrw3di8bE4maeuEhDc6ja4nymR6ErLgvA1Sx12GhSEG6E3Wrg2X96DsAshkpx0-dkjmA","CmRYAAAAAAtiO4CKudOaFGIpiKX8tS8UxR-gmt2CiZY8G_AqbOaNh9HrcpPnfbyGDYHzaSRS5QqfMfPFkMMbbpVIrasDIJi4IQTGNbazddWbXUvb7ZTGQvFBShZmfbgYXSZxAZJBEhCcye0N6h-pueGYafj3CM99GhTIjExMrXRwlWg3Sk2O3jguNjuxvQ","CmRYAAAAq11z-X7chcr3Pu6aQueaDEIl-sAhCDAy4m1axIK-N-6fuoDrDMftkvypYjaGCJeTKDNeiEIljAzT1ZSdUTHPYHvf--SlMChNAhSsgCnWOe-EP_eTaw-14Gn-WNUeh6ZiEhDslktPmUBD5dzTOCsnnMVnGhT6vsQ2hUiK0vBx2nVGx22EunaCNw"],"placeid":"ChIJ6R4D4gFMzDERrw2qKCM4TfA"},{"name":"Y&T Tyre & Battery Services","address":"5772, Jalan TS 2/1, Taman Semarak, 71800 Nilai, Negeri Sembilan, Malaysia","phone":"012-372 6686","country":"Malaysia","city":"Nilai","zipcode":"71800","latitude":2.8210907,"longitude":101.8182667,"website":"","photos":["CmRYAAAA3R1AHIR3C5eGPghdxth1onGMuQFSMHSWdRcP82Ngz2ktDPSAbidlnHcc-09ADtMGNlb0ttDsIvwpV_iStQTmX82xOjbSV6eu3Kv0988AOX_1sV5IiGELr4rt2Yxgbe3hEhAWGo46IwGEfK0BTe01Vd5_GhQKR1sPvxGN5Ldngih7XuISY1nQUw","CmRYAAAAPM4gMlF-oEgK4RlgBt8tCLnAl4ytAGyKBJfiG1KZEKYfVpzVml6roC0WF253Igh8mdJaO1OoazjEGUED1eDp64Jiy4SvyE4y3ITmKzc_qqyw4hHfTPNGCdxaNi-bdmO0EhAQIBjER08dXlZZVlkcnTXWGhSmX6c5-hVGRO_ufG90IuVvc9z8JA"],"placeid":"ChIJr7tMLz_EzTERrAuY9th-XpM"},{"name":"King of Rims Malaysia (Shah Alam Tyres & Auto Accessories Sdn. Bhd.)","address":"Lot 53, Jalan Utas 15/7, Section 15, 40000 Shah Alam Selangor Darul Ehsan Malaysia, Shah Alam, 40000, Shah Alam, Selangor, Seksyen 15, 40200 Shah Alam, Selangor, Malaysia","phone":"03-5510 1689","country":"Malaysia","city":"Shah Alam","zipcode":"40200","latitude":3.0644261,"longitude":101.5397641,"website":"http://www.facebook.com/kingofrims","photos":["CmRYAAAA3rEMz074X1Qg1eyHiCJA2TAb8KfXf7JNZ3stJblL1o0at-wE4VPHP9TjfNojMzK5dt5lWjZOQZuvZxrYim-scrkb7VhmAK3sD3hyM5Wbj5w9qiYahQpHtwLq7nBptFecEhBFInZfzvbvLGbFNktz3-3gGhRoGJY5vnyY5KpEdWaEpS4K95LxHw","CmRYAAAAvMFxNjMdp5YDrqfIKAz29Ldmwo50OPqH2hdssRJk1pWvWuW4Jv2aoMIJhpC-wQKGFlp8qycGS1Ogszkrj9QrfsL-uk23OzdzpgMR5HGNos6kPM-YHlhEnSOBH481R37NEhCyxQoxuvUdKCZ8Z8b757uCGhQik8rsuYi9EuiWwr38EHX0K_z7Dw","CmRYAAAA_2J-zvuihnKtAR4TX5iGnBtClQ34APGPmXLnKo0-iqX9ylRUS5KaHTn-DPqRKMcUK9BRuV4DwDcouufB3-skGyzOgD8GDaqxrI_q5MVO_xX4kHUa_XJ3wkUX1UsvbdCvEhDxKTvn9HJp18e7dTll0JRzGhTaWFyjY9FYDmdFgMYN9XhAYMiAlg","CmRYAAAAy2OzjyM-TDAwR_dS00DL837UVx4ydS1U0rqmJ-AsPs7zw13phllALwrB8_UHPSCosxx09OLnXMgQv9PkTFrl33Lh8hfTlMki0QOiAvl3c06smr7bic0KTEj5M-uaRmmUEhDXKUYITtPQcl_BjUi01zGfGhQAUZr5fyFS7_0hEN4TQltnXXh3xw","CmRYAAAAwifhOe9vT4QgFg5DI_9lmjfxHxqFH6BsyFlT5rKLhUAuHzXNHGgDtkqRBbTiyfmRzCThfqGpN3vqmvL7OVT_kceWaHNA5jxtZQTsxIYTQ01HftjPfgiq6FxQZYCS1esVEhD8J9ptGriDTAU7zDcYRZ6kGhTPU5sXLXiKaCiFjA6FJ4Gp5NvyTw","CmRYAAAA6KvSV2PLWRqqKm5guzo5nS8AwczFnG5I5ye45UkmRBzcsytLxTORip5oowJ9l_0f3mirY7gJEuo8CQ9mdj0Q9YsxazpdifLkQ2o9NEopgoxz4zFFC-APBJazRTVSbUISEhBH3p5vov2UzG1sQjv9jId9GhQhxSXisFIxjMyl_oQl0YkbGGVOAA","CmRYAAAA-UbHLf-2X3Jfd4npVl4EQnJJMmKV0uJpIjg0_Eij32PD6DyY3vJmjYcniU00XE7P7i2GgljqrfikWjiXnc938Ss0N6YpatyZR31HEOd_OGiw4PVAbV_fOshkDxjWRXI2EhCDiWHyXhg8jJ39UPqspXhTGhT7qYYyyS4amLsS-yn3Y3UsKWjlbg","CmRYAAAAYng1pqOe53n0Z0dx0ldexEGe_TPhWkFU67Qw3TDKkhuWh0qhPGM_zsW7hvvtXVQdUteI_85-LDOkxcz-Oh72Iw2PsUmfiCbePlVy0Z90TOUCEfgjJrr-_z3FB2YZsm82EhDecbtfqWCc20DveQLGVoUQGhSLmyDRaVBFuNj29LfOKx4wzESTBA","CmRYAAAABz3DA-VHf9a7FLW8BDObUT20pP3pD-tYx_yZZzvGX2tTrmkZ9snZy87GBpUEdRNGV8iRZdFMyiABMeV3ii9VKhPpbZFLdMWIo3qiuDBzTdfGX7BtV_TmIvnDfeHX0ziKEhCenof-8VjdBjuYAIoHq6MiGhTi3-c1fQc3Z4bojl2WnB37MxcM2Q","CmRYAAAAzXEmk1FvCC5Zt51j_7Cz0ep5gXvbGGW5ciyHBkjk9LDkedzWS2jAYAAVkzgMLjAt2V00IO_zn1Kw8RlRdvGTjxqrxkBr1keBYvEShslRUunoM4ak61YsBTJ-QG-3PEIeEhDmAvBpyR3phSb3EFeIW6WLGhSxoKezGX7nK0_Hc8qknSHCTP9nRA"],"placeid":"ChIJzQpQjGNNzDERDfv0A9OUdfU"},{"name":"RF Tyre & Battery","address":"309, Jalan S2 B13, Seksyen B, Uptown Avenue Seremban 2, 70300 Seremban, Negeri Sembilan, seremban, Seremban 2, 70300 Seremban, Negeri Sembilan, Malaysia","phone":"06-601 3336","country":"Malaysia","city":"Seremban","zipcode":"70300","latitude":2.6953429,"longitude":101.90981,"website":"","photos":["CmRYAAAAIqwcoUowbpzGyrotyJo3q-z_AU5LbJAPn3P5LGQVQ6TFp83Nv8zMBpTbU4UV-o1FULxHawN3qo_SH1k5hYXx4UIADom2KFrfpl_Pt4SApU5jHmbZ3ceUFjqC6UomacBqEhAS-xdBjfktuFfUWoj4x6ZtGhQyfdfWfhLpb_Gf53R8QYDAd2W_Ig","CmRYAAAAwUolt4mezE7jzZ9KJI8Um4QXyHIBz_2G2tFurz2VI0LNnCioKCin2kmTCvsLX6wL7SndLF2t_7yt8DRpjLcZBODQfDVp8CHq3AUgtViYoh_mAVpamT9Dg7VcuZTkPOoJEhAktoDicTTjn9nAjiIc5Ml4GhRTIjq9RvdIc106n4vEHKQDvkeoCw","CmRYAAAA1YPV_t78O-SSQnmGzTi72AYuZAAbAUEwQjZACF_iSg7NpymHY3jrrCvJKhfS58ancVxQf9apyUgtWCU7mRPtxY2qht_WaLveBBkJOXowvpdP0_NFOeh1nxezYfWvKT9PEhCqmtX6JX8s0GzVtNpPeZIQGhRNY4Zn7XLBLV2kX9-7Ly7B1JARKA","CmRYAAAAmmc4XKKgooQD7Jg6DYu3-TdLn6Es5HND6oEcFFh6i8hfGFDmlPz-ia-kWOStVgJglqRz41hmbufomOkSOi1-IR48gi9OhHgoad37R5wQDwcZFLepowseQ96FnqBP0MzTEhCxS1KMz3kTXx_edn_7LrK3GhTYRAuSyUdBKWQ63vwAy2YtBfV0IQ"],"placeid":"ChIJh4BBHMHnzTERSZ8y_mZlfP8"},{"name":"PJT Tyre Service Sdn Bhd","address":"21, Jalan Penyelenggara U1/73, Batu Tiga, 40150 Shah Alam, Selangor, Malaysia","phone":"03-5510 3388","country":"Malaysia","city":"Shah Alam","zipcode":"40150","latitude":3.0820866,"longitude":101.5556115,"website":"","photos":["CmRYAAAAuTOaCVvFDA7K7U6htfps5NkEt3j0jUQxzosWuVQGir-Oa77JVnIgFsZjhqlXFg55q69YLGaedVn9MkOUYpBafs8Ce-4e_1IecLW5ExAmgxID0IqvyhIhmPE_ZVZkKwKfEhB92X9xHf3vMzh_GyS6aBjvGhQi4DrXFK1iZd8eDjsMsj16SkuQ2A","CmRYAAAAngwuz_TjP_tT8sDkkvoF6JeK4Eow5j6fANRJMyD_DWLRl-zpAInl8wkyNqG1-vdzi5LUw_Ep23KPECQZpeIkX_B5jxiVBAyko300oI4VKGM_oLJvUdkb6Qo-w9M9eO-XEhCSGFzBmbM3i_YNWnsTaUmWGhTMx8-ev0YRcTi4BeVybUeQzqeKfA","CmRYAAAAqYSYCwk8k70Mi-TC6vuO7U5BNiKGl57i-fzd2xMuttiCIh8p-5NpwYlgis04uRgJIQ_zkJk4qXLpl11fGYfStzuHGxv0DgMTCcnqPepC56D3AaP1LkwNLwkLNQ__Q7mzEhDISmZVXCMhjdFb0mLPzvYlGhR7v_eDnREAfwKnz36NSgTXXtDcPg","CmRYAAAAJNVx689Igvy9jTYeN9IDfB3hsi0mGkLN0JhI5Fkyej3lezO63nYPO10-NAI7bFnPxHhq7RmXz_hQ-U6V7XT6JiHO2nV35TvzSVU1WuaVDVvA2U3qgCkmg3i-idzkGkthEhA0rG356rbr5cRIXZFCNUaMGhTbL3Lagm-QSeE-URTxPAMsz_bFaA","CmRYAAAALO_IexsmiFjwx28ydzBgT_fQ2dM6uDpl82zQFfkLV3CHs1SIfJ1A7LRP0nXt3cz0oqmefkHvxLzfUEWf0Cuku7Pd-3s5YM2JYb94UJUdXEXLUI5rpETfTssa7Kn3rgEMEhDAhe50zwv7zPUZ9GOtljdVGhQGlJQ4sY8BUwbTcl3_tzC67MNqoQ"],"placeid":"ChIJVVXFUratzTERUHKBjVdwKNc"},{"name":"Continental Tyre Technology Centre Malaysia Sdn Bhd","address":"No. 2, Jalan Tandang 204a, Pjs 51, 46050 Petaling Jaya, Selangor, Malaysia","phone":"03-7787 8888","country":"Malaysia","city":"Petaling Jaya","zipcode":"46050","latitude":3.0877359,"longitude":101.6390115,"website":"","photos":[],"placeid":"ChIJN1Sw-71LzDERKLG5xMoVyTs"},{"name":"Heng Meng S/B (Auto Service Centre)","address":"1, Jalan 9/23e, Taman Danau Kota, 53100 Kuala Lumpur, Wilayah Persekutuan Kuala Lumpur, Malaysia","phone":"03-4148 1423","country":"Malaysia","city":"Kuala Lumpur","zipcode":"53100","latitude":3.207263,"longitude":101.7204502,"website":"","photos":["CmRYAAAANCqchFimbwni6b3efx8vqFSJw0sJuSVGp-Kck-HuHhI9ndRlLZ-PBXq_MD0QQinoOn7yP4da_mx-sszfxCmb4uahlAS7qqW2e8rpNmMHdi7Ha-sUg1vL_aP8o-PW8G0IEhDXPcoI4aeo4pip6LvR4PbAGhT4qhAWulvUZFIEbaAvSx4lZCIW-A","CmRYAAAApl34ofxzfMyFWVIfouUb5YbiUgO60BWMlEkR3_m2AiurVzv4Pnk6VzGmiLZJlrcryY5FVgFmOzBb50p3DvwdGihe_YKo8QJo8e3sy3iCr-8UeD_eicQ-Y8-sT92-Et0TEhAG2i7oQ2lFYCHDDWU6bVbGGhSnOvbWyKIZYedaKsrPa8et8Rfspg","CmRYAAAALHbqplqqWFDGagA0Ob-yp2-HvFINigbrig7M95G8pg-IlrwxUHd5b5GBfuWUwH6tfXtkZ_LNlYBGgR5GGjT24CS_2pjXU0wRhOsdc2J0c-jsTTWQDuafK3LYQ22v335zEhCG5P8AMrV4jljgsQ6QEcNfGhQzLhfyejusFwQcTVD6ip0wVEBGXQ","CmRYAAAAh5Dx6Ob7AkCZfyBRm8fl2YHsYl0b_ucurwgAI6zLg8wyJHlGBtawSPCXKIbokE7fHsLrAn0EpGrVpggEmY2WeZfnbucB4z4hsBDZTjLMu-UNDN8DQstfYCVgmwN6ueDHEhCGwDi7oXYk6asFWtL6OAUwGhTeAEu4DfSyn6sefAAJiBf0wANISg","CmRYAAAArH6y4gUuAxyAaPCzwcx-zPhBA0KGjhATgimYiN6uVnCNlr7MnPLAZLCl4k0wqXJBz5wfvUrreL-AMueCoczrbCluG8LRshzeeu4XjTkQO_fyDqXhPvjkHiXCxSsf9-McEhCZuyA2id_P1k5ZL9iAbxrnGhR7pRMCWf3EFoNxLI4EOQ9_2PJ0Jg","CmRYAAAA49RZ_qBW6Vg5T9dKrhj-yJmANeRoP1F1YoXM82Y-MaTt6rQbUVV3K3TA-uYGrTbC8b257IZCRnxwofcVLFLWb-6UGVXCtPYtLX-XUh_3MwkXaa7GB9Y6068elDzlkw_TEhD7s8ms1YAgexADLlezALnbGhQoC23IORYUE2a6i8vsujv56FxZfw","CmRYAAAACKwp4HvuPku9eE8m3UQALvK97sNUbKVNMDAZjvOgtCRGXBjkcgjhJWBSqpowKciVvKnKlDTeOlCLPcCpvBtOQt036o9ZwwYLiu_0p3jy50x1V4xFDN7HpqfiZvKpSa_dEhAvXXq59WnG6fijSBhg45qbGhSny7ttfvNRwXaGB95caLA4CjJP3w","CmRYAAAAxUnKSsraIPCqAPD97aS2mUHrTfIjYxfF2EUPMYKsGc0P_p-kUtKMjnEDFOZfYH4nUcfkbnRcOmrq65AQaysbJ1HT8SB1fM1ysMOStB5Qn_p03hA3kOiAs-ItjJL_bPzyEhDYHdOz0-hzfMmPqbsIe2PKGhTPjhzMZ5wNOFB4NWjz8-FYHNKLoQ","CmRYAAAAam1qeUJmGwMALaRZwGA6zK3d29Xzs4sZmDsktTxTlTAii0X99x3a9hTC9E5JvewyH9eybxDxkW2pPos6LvgTu1nkMjPWm5SlWySml3ZCtG3XegaRxRf2mwc7obd7nn_6EhAiyWkiCPDT9QavW8lNx8V_GhTcJrWcfa3CWhkbBjUHW4EU7etN6Q"],"placeid":"ChIJn8dfUBI4zDERTQX4KwxjPhg"},{"name":"WSS Auto Accessories & Tyre Sdn Bhd","address":"No 25-27-29-32, Jalan Semenyih Sentral, Semenyih Sentral, Selangor, Taman Semenyih Sentral, 43500 Semenyih, Selangor, Malaysia","phone":"03-8727 1182","country":"Malaysia","city":"Semenyih","zipcode":"43500","latitude":2.944802,"longitude":101.843653,"website":"","photos":["CmRYAAAA_SiMbuyWsK_L23nRxaUIR91D8Oa22ER6KQy6_yGalyNa7N-OcY7vnBvJ2AMvK_2msQCxbP074VF5mWz7Kc7q_6f9JfxHpLN1v1ix5vDLqHNoYLUff94TN1GxWzqC5u3rEhDihDKBHaS1YdmufK2Hm78gGhRxSILSTj5Bb64iHqLsDtuMhyC32g","CmRYAAAAsbYoPrdEPxPnPRNcxEfyQ2EGEMZFaNj_dZ32pIbBEhZJ6kyAr1syXwDz6fGLBRjoKT84pA2tH-LUjaXwfbem1te0bSpy-HQ2BJjvKQKt-5ZIzxZpoVBsR_FtzUmCfBx5EhD7YMX5nSjpFXejtjBjubP_GhQANOJqF2JxszqAum5GS0mfF2xbuA","CmRYAAAABgk8vjzHpCU_lD-plcjtMzwQn4Q1-VRwReDv87_F_mxT5nd745Mvzj0_WIuTEKiKfvw-sSLWIUB74R0eOa0ARb7SBgYy9Ob-eXuPoMxcfTZfAb0AGWksmeUEx7KqROveEhCRCA82z2ajL0KT_YGvUM8rGhRLlblHVOahrhfSQtElU95S9P84bQ","CmRYAAAABgIG4L_tOugRBNZM1LYbevQbtotVc7IzKlkcjDUwxUxOFwzcJiWPwL-WecTPuNPiKplIhNM0oFLGBkUOjGn8WgbP1RoKJvmSaNMYyv1m7LXv_a-FZWICDWyYxfdTXqWfEhC9kzey8MczfAi7Qt0nRFz_GhSRYjsplEC5qyVAk39GZnKTpIKCjw","CmRYAAAAZscFlywSdNDF8Sw7Enmcl5-EZXkkLy8f9SgjgSnR5LtmudmuqEj2twP4mcXxV5c2EhWhylFXCw8ukr1A0u6crl50ky-hn4JtQWDLJZ4h_EM3YDxkXljbjKwBHGE1PIGPEhAGaQffs5G6dPIHnvpo2kTqGhQWKAFdtVbobGPigGpPYH6gVc0ewQ","CmRYAAAArmtlboyF9S8NW9X7hgfMofrg-RC7Lzt9Y1EOkId_VIGgRCzRuEXBfPaGMyvSCfRLYGuYXgBn8a26H8uH5uDRfOEN79krzOc1aSXgTvLtpoTszYXUjThhgNuep6WY7BKFEhDx01Hsv0Y-XDXfma3vRQIhGhQ4bGs0XXxkqXyHxahqmsatdh2zLQ","CmRYAAAAwWB3n_ewRUw9U96coxJUq-DrThQC-acxl-uoltkHUJlX8jHuRhD-9JBMZba0sdj4cKESm5YO7DGvulirqrt5UYD5yY7gMRcc3NHHatc7gSZx4qYfIbsWN6Kbp608cApPEhDlJ5fKRzVX-iAfX91gGpwZGhQw-dmXUaDb2m9_-MGW5XoKVADUIg","CmRYAAAAE8GuXC48BKgFSp_F_PR1zj9E1GIDuu4HGzxLygR-qnxBtM2HU1SbGhwd9sFmHOjrV4XCsITX9ldSAXAmkMXDobnFAxIV0P7uZzdVcIDqPrLR0MS43uXgodaHJCTdZiSGEhCRwdKneDY8-9TfIZbRaZC9GhT51nzDn_x8y3sxEkDxbKTrXMrKfg"],"placeid":"ChIJY522RH3OzTERBMlrEIfUVMg"},{"name":"Comfort Auto Tyre Service","address":"No. 2, Jalan SR 1/4, Taman Serdang Jaya, 43300 Seri Kembangan, Selangor, Malaysia","phone":"017-352 9425","country":"Malaysia","city":"Seri Kembangan","zipcode":"43300","latitude":3.028356,"longitude":101.7070339,"website":"","photos":["CmRYAAAAwwBXiVgXjbAHrePyF1s4p2eRt4KzSE1vDZBRvqHc81if6YuIbOhzegq1sdneTX1omrHCBZDNLo352-Wjv4shYpqUjvk2JKFUucBbcy15O-y-YdaH8qfdIG40oZFKdzFvEhDO1Ww2COKAzOT8anLuLHXJGhQ_euCm7moiBCosEc9GI1S0ET5iRA","CmRYAAAABxc0caQeLyVgt6d3oOrBLGUL9qIX4rkK6IXDvNCstMf0TeBrqucJknBpvu6sWCZzMoYn2-zBaFvJRkp3dLR8K3bs6EvpXYIq3wApROxXu0m-H9VNEUq5kQvlyzizumikEhADk1bg4VF9jFy8BHEEUy9xGhS9yhsRx8Uiqy5LFmoWMCp07S0Q4A"],"placeid":"ChIJwzfsm1W1zTERh6R2vvqxtB0"},{"name":"Continental Pit Stop Tyre & Auto Service","address":"9-2, Jalan Damar SD 15/1, Bandar Sri Damansara, 52200 Petaling Jaya, Selangor, Malaysia","country":"Malaysia","city":"Petaling Jaya","zipcode":"52200","latitude":3.1849006,"longitude":101.6073943,"website":"","photos":["CmRYAAAAEvO7olnplbno2f-oG2cffwgr0e41sFah1W3JwVyj_j2SntHEY1HZYB00KA2JWHokQ1SG4mlSvZ3vfGtTM56O7TqSsnFrzhk8MiABG9IKGaZSp82oB5YVOO2DdQCHw54vEhAsMVyTQzOiCHwQPLfX8m9jGhQPJuYIBEkJhXc85VP6cQzp1ZcQBw","CmRYAAAAAc_YG_I7ySv-DiD7REFv5G_KvnpAr8e7tfG76BamN_cWb5a8Mr29Rudbcpvbbuwqe_nwNS4uMhrVEGkcsxjZic_402tnWGpA5SWIENEkTu4KX9JLP7eGyfBzPAk78Mf3EhB7jufj_O0ZSaClO5JUttbhGhQ2Bi0EwE_z9yo-91VixkHXMj6HfQ"],"placeid":"ChIJ695RAlFPzDERqh-xJYLZYTE"},{"name":"Silicon Tyre Sdn Bhd","address":"1, Jalan KP 1/1, Taman Kajang Prima, 43000 Kajang, Selangor, Malaysia","phone":"03-8736 9886","country":"Malaysia","city":"Kajang","zipcode":"43000","latitude":2.98346,"longitude":101.814706,"website":"http://www.siliconauto.com.my/","photos":["CmRYAAAA4N4E15iPYYEDMEF0f881AK26afdek8-I4SKEvQAHe9mnXZM_C4xUwzlIbDtVyNgf1eQjDxKgXTtrGThN5YaCxKBnmuqmzBQ4BbMyvtnCkDdU-9LQmg0DLTbFYOzW_bRDEhB0qcLr1u_tNcm-tUM7lnvMGhRmtpe8b-xUgqf9AQvmvkpAAeHXjQ"],"placeid":"ChIJkwP8VnfLzTERPwEkuMTRzSw"},{"name":"3S SPECIALISTS AUTOCARE SDN BHD","address":"Jalan PJU 1a/20c, Dataran Ara Damansara, 47301 Petaling Jaya, Selangor, Malaysia","phone":"03-7840 0208","country":"Malaysia","city":"Petaling Jaya","zipcode":"47301","latitude":3.119172,"longitude":101.579061,"website":"http://www.facebook.com/3sSpecialistsAutocareSdnBhd","photos":["CmRYAAAAWrKZT_DL6v_oZPW-MWRma3dHCRbgy8YHN-rjO3qpIqCXhdePdNzY0yKoX4ssj5ZmZAgcKtosvrRslTxMGJr7Xykgiy-d_YzGChc_Cjns_T8CJKfywFDdlhFwn61k_eXOEhDUyVSW8cAux9nHkHa_U4n3GhTc4gxp982ELzmoxtCAkuXOR772iA","CmRYAAAAhxy_Cw4en8izk1ieebGYTLfbJZGX4Z8_wi1NstnVXTO2RUW-pKFVzAzK1kk0nvTnc8cW93PgSrEaEwH4omMsJKokD1z_zhZZnnyQIHtROth1fkf_nJcgFdwP3Hm34U7bEhDT3ZKMdrBHFxEfwq68OMcMGhRjvk6Fo3y4PXl9OmT6I619zR1m6A","CmRYAAAAsG4o48AEazy81DtfZ4HrvDJIn-qrSA0XCXirp1OTFlBt_jJgfaA7GHKT8jBhcfo4iLb71z4A7iJZey9kQWzB-n07qfjkkyUpgHdraD2ZT17mag9PkYadC2oWl8qmCf6cEhC8kzK4Mye-XRHVaM4_hDagGhSV2LmS8aPpPuYnO15ViqIrfW0Yvw","CmRYAAAAQHzCiuj1FR6exhY3KlkUgFYCtAMJvAmDqgSXACC8-aRLrhr3KIydmn_e_Ro4snIOa-qfKB65GRn7ATNtqOtN9XxJoyrUatNiCyZhN1BguGTW16OUrLS0L6JXVXSiYp-4EhBJylHHXRIq1Bj7-h6ifdhrGhRmul2z76in4TOO6lJYpnhAUHGgPQ","CmRYAAAAtdKGf5q8elrlQQBcqWz9D5StQPrdLfxE7LY_vtCxqb5htM8P36GQkqonxxCK_E7-zYEzJcJ9q2qdIJ7Vyxm14-OwRE2n40NL_XwYETcpC1c4XBKMFiUITbu-4up55fL-EhBl-Y8U0x96o8FqA_Ma26L8GhScIyyGS8uwtTNvPFcxQv4tZhPunQ","CmRYAAAASgiuzArDoeqhixbi5yf_Ph0qsqFwbLetlfsSXqFEKUYBs2mQnaNpqaPHEkiKQoD9pll1HjUMxdIcC9I6FhXL99a4p-ISuvd2P8OvO9PFXGVFYzfSJQKy_jIEHv6R8-iJEhBrRaB_uNh39dMwiYR6NnICGhTHfwOeUAuvF5jrDSVmEa2Nnmw5sA","CmRYAAAAA9bdLpzjxEN2A-nmcGW9Uf3wiJ2KsJvZT2fMH2p7l8lSuGs4XFsecsW9UMJOQ63X6XrtZ8sJrfTjSNapJf1kzJ8Asrih6DDA4BmJ9ePehd6PpF-w5P7UoJKitoezrN14EhBMihmyp4Q9f5UX_k-MBiugGhS7NL8IugA6_we36OIl5-TQWLnygg","CmRYAAAAQkK7INHa8C1HPJHseLbrjz8plz7CsKRr4lxhD6omhw4y3M_l4MvrvG0-Y1ggAWDySx-0JmBQcvj37k58DZ55dO8fFd8RhfByHfj2d-MCf3vGDfInZHCvO10m7IGPO657EhBx3bcakjC1hiufLJ-uQpy0GhQ2__uQzwSVvnHo_15lmGWsygbHWw","CmRYAAAACtljobhuQUZsqKDV9hGHu6b_YSlfeNpKdBeH3FwYXQr_HIEDb_GcTo44UZNxO8MS_43vQ-W7FwGpG3RoSY1DGgugHhICoogTdEoBAXE1ncOl4IJ548Bc65nXhcFNoWLOEhANj3em9K2V8_TEfr1LsIW6GhQ9bOc0_17aw9oMPsA7KCU74D5ixw","CmRYAAAAsDFn0IGEEUcHJW7uUrmuZ1umrf0eU7rCVjfP6dPFJEC_Rl7ZQs7Oc-NPY7eVAuyluUeRfJHOva8GsFf3GJvtqSTxGvBSFzxFrduJwAYVaH08kmjLeZWxizX84fRdZw6jEhBRKWXF1bnqo6f3EF9jqlBXGhTM4lYlP53IPvwqir_FpHLkS4V1Cg"],"placeid":"ChIJ-1wUiYROzDERXzaovL5SkXM"},{"name":"E. D. Tyre Autocare Sdn Bhd","address":"Jalan Utas A 15/A, Seksyen 15, 40000 Shah Alam, Selangor, Malaysia","phone":"016-226 9928","country":"Malaysia","city":"Shah Alam","zipcode":"40000","latitude":3.0639609,"longitude":101.5390376,"website":"http://www.edtyre.com/","photos":[],"placeid":"ChIJHdCtMm5NzDERu2jelVrvlcE"},{"name":"Stamford Tyres (m) Sdn Bhd","address":"16, Jalan Jurunilai U1/20, Hicom-glenmarie Industrial Park, 40150 Shah Alam, Selangor, Malaysia","phone":"03-5569 3094","country":"Malaysia","city":"Shah Alam","zipcode":"40150","latitude":3.09132,"longitude":101.56388,"website":"http://www.stamfordtyres.com.my/","photos":["CmRYAAAAswFn57_E0GVvk5LTjMo37znBI9MziVKAonHzqPvLySKI5rACDFxNdh1Qnu9UulZ4nqwjf6LjhLatvcYTLo-CPzAGN9pYaEEplWXlm0VOufL_7dTH-OlTho30rA2q_JtBEhBWq1vbg1G1dkTvKfc7g1RZGhRRUIfutmLkJrlfKgrhAJDw-BhslQ","CmRYAAAA4kvVkRLPHmpdEcGyQsMxvxEdYyBLTgreMkbK3_LIZ4qUewDNC3hMNrEh9FJjtPF6n9neHtBnQiybc0GgiUKhDpEAkOJzsnRidK9cAXhis-_sbIeUeSZskXkSMkZnOI2dEhBWpyHbO6IQv1-5tUW034bHGhQEY3S2j7j5qg2BntGyIViTrnls2A"],"placeid":"ChIJvTFUkrZNzDERnJg7Wqpxc3I"},{"name":"SNR Tyre & Services Sdn Bhd","address":"No 1-G, Jalan 9/9C, Seksyen 9 Bandar Baru Bangi, 43650 Bandar Baru Bangi, Selangor, Malaysia","phone":"03-8920 8903","country":"Malaysia","city":"Bandar Baru Bangi","zipcode":"43650","latitude":2.959839,"longitude":101.752355,"website":"http://facebook.com/snrtyre","photos":["CmRYAAAATa4bgyrmCM4dK8xdAFDvasAOgl_X3nVjYSFPKtKv09V2a8HWGvSG46RRViWVlae74hM4ERLMcs9VGjdaf9fUueGl7PGzebd-HMttFwHqRaXl8KVAfIgDJpyOgdM9BQkYEhDGuRpzb-DTahatm7eegqALGhSlvRWkTEY_4kW_hhIfv3i9usozpg","CmRYAAAAkzlTU2jbLFmGiDuay5BIH1_XI-Xth8neyR2byvi50UaxyhpfBGOW6wglY3as3rIc7ehMNIby5dIsmgyFeKPvKo0fpUU2ZEx_QP_xVlH2PZATvr_qrY8qse1aLU5KSSF7EhDOnKE-irp-8-EU2mop_3IaGhR_NIyiQ41lXjgzV1RM4UJsZCfb5Q","CmRYAAAAMGZUCErGmf5TnR-6zhLlkxdYb7k9nFk5l3ndwdlGukn_LH_z-t9UaRPJoLbJObT-XMwpG8ajijp7ikEllkJudHHOdal3OLCBY94q-teD-QRITzudE6gJg0WI2dxlodM_EhCfOZcDKMD_RiBJxxijFWkQGhQqVLufWLwAiQkN6GC2OlwR5fK4gw","CmRYAAAA9XUYRQNZVKLFAcZ738RKTGMGKIg2gbMmqsBgZs8iXceVGvKNmYtdFJIoDYPkqvGvMeY0fA4ppGqzmm-bX79ZtOc8zFreYP4u0d2Y6RWJa7Lgcx59TDw9ocookuBY3q7DEhAdYEz48y9Ixo19rOBLl4kxGhSipXnpeYNqiGvuPR4Uy0JNwnQbfw","CmRYAAAAfpPOSTH4TYRvzfdWAF-hbbh0yMWPIL8SJbroXbfWL1knTodCyhA7bNPo7qFXUnc9jRKIBa-R1byoKgvf7bHaR0Q24825GFtf3N9splEP3L6lGdwv1AkNZ1wkThbDKchzEhAmMf_SMoOP7i20UsfRRmUXGhT_QvTR74hnU1DmQ5z5AdydizoWqg","CmRYAAAARXxBZ_Dyz6tqvVIK8ZoANypFCckmajQ4gKNbMMx_QTgdmCwbgKTeZflNbC8D8GFcXCL2MozZl8oVTR1pplKgk29kIVQaqIfvMwHAejYytkphvkkAWK6XTn4r149cju5AEhAagSIYbtKYhY0tWcMA5QLbGhRadS_FlGpL5gDFmMTN0xUJ3-oOPw","CmRYAAAAENqRk16142KRf4KDm-re-2hemYLrjx7-fQSwPibGwgLDTtb1sE9yRdZs1FDiMNmukvh7wwaG_hdCfBG6oXKAF4SNqHWnyN63Oq9Qw_gQU1oc17I84c3fdLY7xAEtkHY7EhAATeRXAxA4OPvMYGxpaP-CGhTVUnIkvKpencvS7nJyKCmaGlRZVQ","CmRYAAAA_A_2vHx9GpPz168lSdXG2SVMbkhkC2ci1Zhi_6GEzMjH8h-R1XpDtUMmUI3OUbOiWPILzZvUEQr19sQGpkzPrcpXr-46Y-AaN6GRRzl96FEd5aLRhCm2XvflFoh7ZgjNEhAi0HEZWr1BPES463I39sNSGhQGj_kiaeEOhqgzqsIQKt6CXLmJNQ","CmRYAAAAoV8ykCMWmPwhLphYQAZTK_2gGjRRl_vu4urP0Ynjy7ftlxrr3jn_0zx12_s2LBwElk_-gboK-OwJGY1weEgrMjegNxS4E5Mnv_JLrTEAhcZJJJW_Hh-3tMIzibI3yF_SEhB2NYqnHsYc_mJId4jThN_5GhQ1J2kFqiiLw_Pgaqx163YhOzWVjw","CmRYAAAAFgOooUBcemz9TCfXLEUdmAGo--apHCuW02yHXVpWgNu57iKPgflhWqe8qel2wXVp5Iymb58P43uuly84P7zDVuBSvl_Epc53mowICY6xaiZzi_quPXaoH1juFJF-mfPDEhBzVL2muOAgyvTQHayJtmNnGhRFudwyzx1PeHH-BGtkAQpXYH5FmQ"],"placeid":"ChIJt7LWYCvKzTERRaX6jxtM5cY"},{"name":"Top Wheel Tyres Services","address":"No. 42, Jalan Kemuning Prima, F33/F, Kemuning Utama, 40460, Shah Alam, Selangor, Kemuning Utama, 40400 Shah Alam, Selangor, Malaysia","phone":"03-5122 7559","country":"Malaysia","city":"Shah Alam","zipcode":"40400","latitude":3.0196125,"longitude":101.5382819,"website":"http://tyreworld.gbs2u.com/","photos":[],"placeid":"ChIJBe3XSsiyzTERiskCZCdvP7w"},{"name":"TSC Auto Car Care Sdn Bhd","address":"9 -10G, Jalan Putra 4,, Taman Putra Kajang, 43000 Kajang, Selangor, Malaysia","phone":"017-983 3583","country":"Malaysia","city":"Kajang","zipcode":"43000","latitude":2.978522,"longitude":101.772629,"website":"http://www.touchauto.net/","photos":["CmRXAAAAXBT2qZxp6j7HGGE-pwPecRKwZhp0_Syb_uFsndn-jrrLOda2wYEGg6uR1MgoESlxVhLVL9GVSTUBQvSEPy0NTZG_J9zAyEMcG3WXk1ZA9VULTY44Wm1IwPPEdlLbpVgDEhDPNYY8kOKMmlmxIzKN_gwzGhTTOCS9k6ZLvU_0pBHFyxD_uQGDeA","CmRYAAAAiEniznA7gxtH4OcHQfurxTC4rX5ocTnIxqEchLh4bqZkiWx-AKbQkzBgxWqyzgBGyfZewoBYGCe-u5HEfpKomo7sicR0x7cmnwVO5qkohR7r3wTqIwr3Voqy8UeXDQLOEhBg1jdLH_xTM3g_Vsd_BmL_GhSjR-tfRS8-vJswltdV3tzGN4mOTg","CmRXAAAAgeBmAbBYmUykPFLHcVsQhc39i-WNK--GTKtI-ydTfTxFmllPwxIP7vIQEObDIZaOcrlTurnTbFhW0YSL_XHgMatpVA2I1rC_ttJD4kPql26k3yo_qaUXoxvJNX9dX6inEhDaaALBlFlxqQz8aeDJrJLRGhSY2NbEHxcGEKNojntr83YxN2e_NA","CmRXAAAAKpHAw6ScrpAnqvArvj0HsXVgP9OMAgSgddlgIo4VMu_jWZ-Bz5gHt565a8gcRPyUXdXYcwhGRC9RT05kJRWAPd0re5QvTYmR3Q9xloPWWOtFfvprjsZWJapu2kzi3yB8EhCCxaxSoXGbrgpcWMBseLwKGhTccDa5q8vJCXYMBxPdgIdVA46aRg","CmRXAAAA8JCVcihdQbZ02IPEoOT-ZfT_46cHfCv9gO5gP1PKFD8G252699HAKdkCZCSwOBwZTvpBq8MjzzRY5K4kLFs8ZPWgsMGbyZnO8QxDbw5x55no02Bn6bo8iGu5OjH0z97cEhAi5cKz4grk60SJII6wiN9GGhTSrw3yiFDnrY1iJF4uqmyU5uUaBQ","CmRYAAAAL4g6KMzlrC8fjK-5bW-6cg0A5e0P2x6j9fbwsyqbSL5-uyp535BG8WQ1ZlWG8kEx2eL0gusmmH9YHy075WfOEvZb1XnXQwEDDF_vIldO8yRHQi_-SDEz5yi6t1SJzP9_EhAo-YbxZt8wAxF5N2ii9LV6GhScqjiHoncrKNoC_cy5zEPkALL3LA"],"placeid":"ChIJid8Wf77LzTERdZATsVhlqk8"},{"name":"Rabbit Tyre & Auto Service @ Damansara Perdana","address":"19-1, Jalan PJU 8/3b, Damansara Perdana, 47820 Petaling Jaya, Selangor, Malaysia","phone":"03-7732 2616","country":"Malaysia","city":"Petaling Jaya","zipcode":"47820","latitude":3.1644359,"longitude":101.6070465,"website":"http://www.rabbittyreshop.com/","photos":["CmRYAAAATz6xMbzeEvk8P5qkAzfwYcYyDyi_dQ36W63YwnpaHJKpp6Jpt5Ld_9UbUOkgs9WEFzVFtmxrOZh_x6k3Xj_kouejwXX9td0uvg057EbzjEtYmmoE8vcZOs2KFG_sDjmaEhC9lAAcHNiKTrcW_DFutILvGhSa7RfxyHA9U2WEW0hC-HEoI7XnFg","CmRYAAAAIwSIOo3anyIi5bqRrYt7S9lqkIQay8-mmsB8uUj6aidwVbNK5hVknMZCQAFWZvUxCU0HITOKXRJI3svPKBIyb_F0ZTxubzsr5VZu-wxjCu6j8rptcPq6q1FMe606WZf1EhA41M3rhwSYBHuXOIgZjYtNGhTgJGK9pen4tByWn40YlzvREQpVuw","CmRYAAAAmD3LQQdYd-Z5sjN_YOU24kvB6PCnI5QNH8EWU8-6ePfV4kC9JDuO9EI8xsMr8-47v1stpZc20PlzAVnClIu3aPvPv_KzpuIhU16V5r2GCqRKOUXxUwuUur0zNLZGfOENEhAmj716Q47ueL866g8AL3k8GhQQ1SvUkBHUKR5M4JR9Lcwj9zKDsQ"],"placeid":"ChIJx1aDUzBPzDERIjlMYgxfe6w"},{"name":"Goodyear Malaysia Bhd","address":"Persiaran Selangor, Kawasan Perindustrian Shah Alam, Shah Alam, 40000, Shah Alam, Malaysia, 17, Jalan Pahat J 15/J, Seksyen 15, 40000 Shah Alam, Selangor, Malaysia","phone":"03-5519 2411","country":"Malaysia","city":"Shah Alam","zipcode":"40000","latitude":3.064924,"longitude":101.543348,"website":"http://www.goodyear.com.my/","photos":["CmRYAAAAefdNWYGj2N0ixv6IhmP4LXyeMeDOLlHGswhxVBOwbZ7lPtEAuL6GjLbEfFGS5bNF-G6BwYDHXXOuCmdxLozm6bOqh4wPt2HjV8DG1JlPqlIAoxHxd2wjUO0vUm4kVCJYEhDHvgU91FjhmH0sbnqyBUmjGhRkbdFMYmTHNd8NT3RwlFhuZN0x7A","CmRYAAAAPpRb3yVIjn0TOt6-jlkQbYNtTn0uvcJGbRto24NH3-P0QpHuqj_V7I0nhmZlDxp0jR9WgyvlKIkRICc0RDzBtBK6SZUkxLOfw-K7naVeIoJUmQip5ds7xVYulslURuMgEhA8hMTL74iHBCXlSw8VEKQYGhRqTXF48IX_Myk1Tm_VkR6yOwNBbw","CmRYAAAAK5989bEMTog1G43ZJ-aYv7504l7gdw8N0OW-AY4SZ-m2R3W9Ygn4G9-BNNL8n8_iNl4oB7zPR-lR5AP_6l7kVM_99RY1_zG3rbcUKD-z23opMlpFq3h8BHdLKsdJI_iFEhBl4UmPBlsJNL6DS7BShKprGhSR60QZ96BatDJKbO_bJq1zoI2TTA","CmRYAAAATMfo_ex5O9iKLMxcKPbLqE3mLs1uuVaAML4ZIOtXnnRRkT3EdVEteGzcqb7BSSNDvgL_RHNhuok5vfT7EewTOYdesQAVk8F25pfz8hjUHDQhL5tk7jtG17CF_eC7DpAVEhC0RkZVGVhNaj6eY-XAONufGhRderqNqowWRO9qEGHgOo8H0dwICw","CmRYAAAAOWB2Tw_Fc7hlKmEdcLTbSAlgvwa6_2HNVxW6AqKmnBfG6tZgVJ3gneh807zrnRsuq9tLvUz2Le443AeptwrPy_nyhfIrcCh5PuU1pEp7C-t796ZPQhxNKyxFkFHtN8cvEhBe6W6UzWdcessT4WL_CfGwGhRDNyijlHSpqVLcOO_1aLOyfC92Rg","CmRYAAAAa6KQsl4WVxlY2_jFs8luFTk58-rgc-gKTVlc5E1G2tqo1A3rAhBcsnFgzy_WLHFU4WborGGpxX0ZuelHpiKy8OYWBD6qqe7jRSpU9sMOxrjK0I5jPjQAACy5R8XOLkt5EhCN-FJjSsTcFnMXD1YXjGOyGhS4p8JS3VO6JBc3VPqedwQX-gdB3Q","CmRYAAAAHAs4EPgittTUoWbUjXC2dZJx-ANSM6Gl_-yC8laXsWslphLtb9KK2TKWziwCwAvHrx1ERHr_ntB-2Gr9-W_xv_nTgInGmCUprqZ4CLOH2c2NNGW_MaEYHVdUfXRu_T3dEhBPzoo9xP3fFzVQ_lzZLEzNGhR7i6cy200Hu7fbzoC87aOIYCHrvw","CmRYAAAAK2dHuk_J5KiDhiZO7LoaFpu5ZQymVQBy_pdWhr5jMjmHDdqLDQAVtELIwfTe3abcWUEKk381TpaVJ8kyQw-EiIkZG6Nk6pif-ZX5JVEQibO3IbkSLVXti-b7-0MFfDXlEhDZ2Y7MotKKGJ4idHvpCwj9GhRWyKUSTqhMygMAk5ohv6gQ71A61w","CmRYAAAAc9Wqq_Iylb9ZqBHbGbFk_C3JnA_Mw1_Zwd33Zqvxy3d6Jz5-xYINeTxN6ekd7IE0SQ9eUDSzk2WCp3UdcWVIwhnKPXmNIhBp8MF6NqZ7id_kqfWSq0-yORMi2J4DRs4SEhBnCy2IkQkvq7zClA31jbHIGhSNkAhXYXfP4tpHWCDwx7Rs5THAJg","CmRYAAAA_tlUt3eP2e-n3a_U3qvtqDD2_BtXDEEWaAHpmHB2oZvLSsqu_SeTvGD7hUXjG6wgqWJS1JC7sz4gvQ-Pfle2c9gmVj-7VN4r2g-v7O6x0iQcVJax69m07l0bub-8TTFIEhDlENc9hCXuz6ka_8o1f9bzGhQO7NADp-4H0DTh959ULa-Gjcbryg"],"placeid":"ChIJHTkO-QdSzDERzsiM4R-mzX0"},{"name":"Cn auto tyre senawang SDN,BHD","address":"418-G, Jalan Bdr Senawang 1, Pusat Bandar Senawang, 70450 Seremban, Negeri Sembilan, Malaysia","phone":"016-228 9114","country":"Malaysia","city":"Seremban","zipcode":"70450","latitude":2.7064282,"longitude":101.9937393,"website":"","photos":["CmRYAAAAa_lJ-Z6sN-ocO4rc0avxSnQ-2ib97LqsBSlq2dw-mGap1NG0AiZQzz4V8h_7Z8k8YZKxIdDIfNFyT9YW84HuxWR0jFM2QOltevMtaPzCfpyQmDOtkQFkciiMB94AZeUDEhAlqPKvKFHoPvfighLZfbKJGhT534fV9_MZ50wpzs14QRPTQq9FPg"],"placeid":"ChIJxc_o6brgzTERdvWPXoVEtos"},{"name":"New Hua Hin Tyres Sport Wheels Service","address":"Jalan Nilam 1, Taman Nilam, Selangor, Taman Nilam, 43800 Dengkil, Selangor, Malaysia","phone":"03-8768 0057","country":"Malaysia","city":"Dengkil","zipcode":"43800","latitude":2.8650547,"longitude":101.6737505,"website":"","photos":["CmRYAAAAZSRsh_xj4LKmGujBEPWdAMj_wt0eeZko0AlicojRvmPYw0qtvyYgAsR1o2yT_EeTiIyCwRVYe_86qNj5fylZioIWr5MB0VHjdh0SDYj9OMkFmV9UzGpc_iNX0X1_aIMOEhAdHao_vbioVU3HIWkwB2kMGhSoYgDD4eQm_WoVS1hR0LKxesytbg"],"placeid":"ChIJ4_TOjTq4zTERVuMOs5GVK8o"},{"name":"Ban Hooi Tyre & Auto Service Sdn. Bhd.","address":"1, Jalan Sri Sarawak 20a/Ks2, Taman Sri Andalas, 41200 Klang, Selangor, Malaysia","phone":"03-3324 8566","country":"Malaysia","city":"Klang","zipcode":"41200","latitude":3.015774,"longitude":101.4416669,"website":"","photos":["CmRYAAAAtdNCDvspToggYjMHTp561vh0Un6-xleNUOkwpCTfwYSgXw5wYRfd22XN1S6V1fXejngs1NSdqeEqJP3ExIN8mae0Pids1WA-6a1nCAe8UcqGYm2pQOjK3Bgj2O5cz-OcEhCaXxEy8I-05GN7WkcU8NTRGhQ-hBeuNvPllJz9PmbEZvtD4CfMWw"],"placeid":"ChIJQ8mM25iszTERileKEUotUoA"},{"name":"Good Wood Tyre Services Sdn. Bhd.","address":"26A, Jalan Serunai 1, Taman Klang Jaya, Klang, 41200, Klang, Selangor, Taman Klang Jaya, 41200 Klang, Selangor, Malaysia","phone":"03-3323 5780","country":"Malaysia","city":"Klang","zipcode":"41200","latitude":3.0093312,"longitude":101.4420942,"website":"","photos":["CmRYAAAAVeClWBKokAuuljMhfDhEdd7-sPtaaXTgkpvoYagwdspqGBxpqKs-ayyRjsGZkGy69Bu1pFN1QZL9TOZzOTqqmvEbHWMCL-R72EISJwC-mwod78vECIBOKe84PNbguzlCEhCgeH21zXsFRZ_j8oDM1ia8GhSDMfmh0Whg2h3nf71GWevqzXDJVQ"],"placeid":"ChIJtUAhqpuszTER0UU6Z9BMwvg"},{"name":"Fung Keong Rubber Manufactory (M) Sdn Bhd","address":"No. 2A, Jalan Wawasan 3/Ku7, Sungai Kapar Indah, 42200 Klang, Selangor, Malaysia","phone":"03-3291 1901","country":"Malaysia","city":"Klang","zipcode":"42200","latitude":3.0982635,"longitude":101.3931414,"website":"http://www.fkr.com.my/","photos":["CmRYAAAAkXoqXOrXNp-4MYX90xZ075jzcyJXDugEUx9tQAzbHRG-n0YLaCghKmUE6AdAr3saBCAmil-KVsiuRIop76-QUo3rYRuQaiC5dwL6LrUVsqcDnKs0XNG2I7z4wRHGCqPwEhDkTdxrIWwY669LSeCC-iEVGhShSTpPGaYuSjl2x1ltvgF3TL7OMA","CmRYAAAAvdcPU2rwa5sH3kBCFKpm0Yctmumx0DgMFOY5loCnvb-dxX_eDJbNyHZNIvRAvOE1NCEKvqDMoPoFmrtlP08tyaxzjhofuDN5GOszkAwlprpMr0RX8rtDcuhqe6KiijS9EhBi1Tnf9sGeFJr1_9CHB1EdGhTVhru7ANvUpso3WYxNKxNd_1ga3A"],"placeid":"ChIJsY0bEzVUzDERWJm-yeMAJfg"},{"name":"Hup Hin Tyre Battery Service","address":"6, Jalan PJS 5/2, Taman Desaria, 46000, Petaling Jaya, Selangor, Taman Desaria, 46150 Petaling Jaya, Selangor, Malaysia","phone":"03-7877 2735","country":"Malaysia","city":"Petaling Jaya","zipcode":"46150","latitude":3.081042,"longitude":101.619576,"website":"","photos":["CmRYAAAAazaCP2SuxNymJq-SmpR90zHWmSlDoQOk8j1ZnSjxeY1osxH2NWNFxO4wOPTAaXxajm0-ShenhXSulPdsiRQDSxISsR3GMVtL4Ti8vslQqm3xYuD4fqNZsaMcw68JX5VwEhDvUTAUoW7nFBGXRNbbD26gGhRGDkJiUl5cz2YwVLa83k7gqIvEWg","CmRYAAAA7dxmxX55ov9WDZjqetwk7sC0zdGtu3ku80J75bREHB0qJA9iEyLcVgx0PSX6Cx7_j5y7ggvLbsyAX8e4KkF5NQJg044XkjrtGtcil8zxPKVvYAe9wRsiY26qVNOabl9QEhCalSg617e3BGtfyUbdUCAtGhT5kv0NLn4iXaVkPi0RxM2lzZ9RfQ","CmRYAAAAKulYd_3q8VazuWl3MbeXSWcysvtvD-NfCAQpiPeKfIl9tEVnC_OG0XSFGmLua25yNnFA78wD5raZKjIPP31UK-mhz1cppaNIMmuPZta-jO2ODhXV1YcEjtMl3ZOi8OVbEhA-80XkJK9Yk6LTQPjpjobaGhSZJ2xGaRk-nlhz0fTKl5yKJ_ugqw"],"placeid":"ChIJCSGaWIZLzDEREFy8FUpJgLM"},{"name":"Quick Save Auto Boutique","address":"Jalan USJ 7/3a, Usj 7, 47610 Subang Jaya, Selangor, Malaysia","phone":"03-5632 0178","country":"Malaysia","city":"Subang Jaya","zipcode":"47610","latitude":3.048232,"longitude":101.593666,"website":"http://www.quicksave2u.com/","photos":["CmRYAAAAgMS6SGCd13MUlcNuj4w67BKjReT-GkdV4xAD4k_VOHc3XPWrg2m2aWTESmSKwVlESPKKI0J1yulK4-b44suBbXu7APIQQ3eUIooTPzGi1LLtCQ19anfRWgbb-vcpUAMpEhCnfevXD6uGlyfNcTa9ar2RGhT-LpF0tCORhsbkHxSB-UxXD75DrA","CmRYAAAAbD7l58HO7eUbITxypOhwfeMefkhG-_W_Xyq57s4rGR8rApFYBDOc7pLJWQyB4JiM27OEjnRMEYcJC6tfNu5FXqQPUDMOVgatrWkukQps_jEJ_MwWmoXcpizdEaVfLQAEEhBCFftERsWYx4gIg1-ivoaFGhTgx6hTNENan8FqVcNiUYze1PB9lA","CmRYAAAAYIzr5SL4mrg_t6p8vgF7I9asmtvOEpHYZipNYYg5yHDdBh8TWfnn97WDWTNrqwBm9xF_CnW8azsa0W0OutWdXrbR6ar_cRPhCfgTldBCuIG-TtfiMJJSH491RqsN1G9eEhBNtSPBR7mVsD_tDAF_vIO0GhTVSnRKVXiQDVvnN1F88bMGK_717g","CmRYAAAAMz_IjMXnqy4FLFL0s9T1sOih84MtlPfebvnyRbyiOQP9FobN3OrSs5UGx3_nmSqS0FQvwgC4-Wyo8zDC66E3r_VzMjku82Y2tP33H0w012ZITUXI_zwh6oZb1nEp1r_NEhAVgSYDC1VMQW10nhN7rI_KGhSBSATsk4SJMOgJeLgHeWbphXuG-Q","CmRYAAAABcseKtcCxob9EGdjpTnCCvxQIPhOdLWrlJvSiJk9uGAnnuclduH9CQjQhi2XbpMxOEhlZERj38DJbu4hAEnhsI3jg7Q8GyG_8EcGmUuMCAFObKKTjWUS2Dag70nMfOSZEhAdzLMd17hfhgqJDLWlqjF1GhSIrDlYCArRJ-kWhM_BnNCOohsalg","CmRYAAAAu9XnaHu1dE63EI2UrTNxORmYinhQM__Q50eOejJeDZ_fw6WO42XP40GB1J_mY4d8DWblqZr-jPKVHsmGNoIFbkakGUoj4xkF9ITP-lXt-FaIRUyn9WIwsz69iKsKgugqEhAx1NBo9_jCqH597LTNbv_VGhTRJ-3ovBArx8y7EidWsLIuLmVStA","CmRYAAAAvOUtSJ7oFX9_bymJLG_DG0WT7McgtNCxnY62NGpXWXLYLNQGTacd4fHMiLLP1wv7r3HV1n7Ns7J26172Zt9lyRch5Kl_DUV-KpUfRMmCchI3F0kBpthAwYO0WT_frr3oEhDnIv-JGDaxye4zgWiKCy98GhTHbLdYifcAesH1BbjsVgJW3U88RQ","CmRYAAAA-XYVlm4rSsS1wir9nehoAjA6SD6pzMMbkl57UmwxbTe7caCRHKfrw7HhlYAoH1CRQOYnv8JnYtohK5VkZ55WX8HK3E-7RAA82mV-roDElBDxIr89aubEyN9elaNdWgGgEhC_-_JfutpnJqjaYxCW4636GhQEZco-5hiDo-BLNdzhHYL9ACGCgg","CmRYAAAAnqy7Vn-6viU89bNEX320Xlch0d_XfEmQhCnUYSaHrH7oSy7hkyBF9qPdo3NgbdbSy2dtlVc-L8YYimlqUmsYQvyleAoCVzB8wNKkwhbHqH9kmzeYb4RfzPPFo9gAmRedEhAonBPOClr-wCnXyo99grffGhRW2fYXNCpybSVvipgxIMkVbJMUaw","CmRYAAAAekhZGIlScAElDmeQsAYGj_tVElpqXviGQySpLI5M_AYTIbUpqrUWmaTvV33amk4-ycvkeTDNaVgXi5jxNNLQVb2ElfwvcRxBLteGhcnb4SPe2H3-Tm20xxgvHcNGgk8DEhD6AFrB7w_j62Drx4gbOz5kGhQoBRqenhXk_VmIkliRrxJ-DcprPQ"],"placeid":"ChIJSVMCmLhMzDER_ZklfHVcnME"},{"name":"H2O One Stop Sdn. Bhd.","address":"Lot 26375, Batu 2, 1, Jalan Indah 2, Taman Sungai Pinang, 41400 Klang, Selangor, Malaysia","phone":"03-3341 8087","country":"Malaysia","city":"Klang","zipcode":"41400","latitude":3.066767,"longitude":101.430008,"website":"http://tyreandrim.blogspot.com/","photos":["CmRYAAAADJN9JCkfh8vlp5M1DpfFoW0Oudvkq5zE_xOepV4_9nDEV3-w3PdYsVqMjlV2Uw59icCxv562j-rDEez0ArFKYuoqfp4sAZ-V7BCVLqnSAWc0udq6xnC6fbD00Pm_BvPuEhC9_2jSCw7CLRh5S-QFWYMwGhQyTwedbRJlInfJAkvjiN7pynFbJw","CmRYAAAA2qIa3yiYla9Waleu5Oqzf68v9VyEUn-zOj6JNzo290WsanhZQPhaiX_TfGJjzjN1HzQ-Pr8-gJiL-Sf48EAVlLDmIPqbfy-b_kqlMCmUNNXNyt6viFTrfP4UXF52-GVcEhCeNGJfr-ga3JjBSIVLZhZjGhSYAbl2c_fN-RTrBvw24w43BYTWcg","CmRYAAAATeC7p37YGwrq5SEZdyIfI399WxJWaG5eVnkl3C2jufzl8IxJl7uRZlrn8n9qzO1tU_j6frKtB-frTZuf0FgA8maiqBnOtkl5POb7ps6TGNKKEmhOxBcryq638W896nG0EhCC-UlRO7wilr2X1y-9p7-KGhQ9Lh2tZit42LWex8JMaGldgx6TwQ","CmRYAAAAt-t42XEV8UDTCsA82jl30rLyaxEC57BhCTFUiwEDslL9pGMnBoKr_EKDCjru64sXg7Wwm_VA78yNDVCG-rvWGpmvPkljHnZOhJQHDh487v6H8hJHAkB-LK6BFyyhHs-SEhApON_paHroIDNFxe-xk1lEGhRff4ZH4UEam8Bdk66lbTAg-QWpWA","CmRYAAAA4h3WMzndgJY4-CN_PvXV1BzwZhSSeVUglaviS6wYqCaoiaGHXJVKhaj_35BBIrb99yqv2OTGcbM96HOqe14B-yzxB4rSozG5rNSJsxgBMwCfgcJb_ALgtBycUj9SRf6gEhCh6xEVWT3LWWiCvhWCLwAPGhS78URGqPyz4SNWtHpbnd0cX_CP7w","CmRXAAAALWDymUx_tQ6TW781Uk1wo-29s2mu_JeugX5RF25up-9OqwnydU7x735FVcCB7BwZi1Y46QWw3kldi97vEuubxQuCwnpnd2_tIp8Xyd4upg_DOmvlXDMaHbYseRvC4jjLEhCX6p33X-695BnwR35gdl-7GhTfJOvhLgZWvU-QIDx93GGgZg0AlQ","CmRYAAAADO5Dj9UxOjCpT7B6UZbHyS3PKVRUbOv_s_AEb-MamNWGi0qAdTvJMDeC1_TbXrIb-F7nKfrQ4X--ENL5ha9EzCrm9j1_DpWXUnfKVPAg_bfyLzpoyws5REhznQaeC8wtEhBJg2HFi8Y-y2toYSkRiTXFGhRwKAMMFGiGXM2ee9AFo2mQCIvZgg","CmRYAAAATkCZvuWPKo_k9jzg_X8ZBwc8VacUzoXPmIRHgzYUdJZO-5b5n0DqzXt9Jj8BYKu-pHK6hKxLdt1SYLGa9AqGXbmGSXHlPt86qYvMbq9sg8thbtYLBP2HF18JVkCCTQmnEhBGimIlLGnyeeIS7L1oOX7AGhT61sIIu-EJttPuOSnqnVVinXWOhg","CmRYAAAA7rLVS7drPx2i1rJlL46LDmgYy6Fgx7_tUh81X0eF2NTU9Wb0ddS6vGAiPd-QD9fvMgFIGUHl4jg6iG5wtDqbKH3ai8jl6UEnN4siDWuGB6QDSVUbgFEtq-xegL5ohz0zEhCj9sRE1mPG7yoEwvVEmWmWGhSz-uhVL-qL0m2fRxhKD6S4abLsVA","CmRXAAAAtYJJiYFbI6ZdQu-jKj1D4sDYGtlDIj4xRsEsYLm3Nlm_AS0lwM8lZjThacnmpr0DjouGnDe-phEdxDLdSWkbbAYEX-w5Ldn3LObLJooGhOezndSiru7Vi0RYW2l79E_ZEhCPwCRE0NPlJNVOPrHI9GKpGhTmPN49ZAHPS_CdJBqJxCodO529KA"],"placeid":"ChIJ8TRAOYNUzDER9l6a3Wibl_s"},{"name":"EC Car & Tyre Services","address":"No. 3, Ground Floor, Jalan 11/62A, Bandar Menjalara, 52200, Wilayah Persekutuan, Kuala Lumpur, Bandar Menjalara, 52200 Kuala Lumpur, Federal Territory of Kuala Lumpur, Malaysia","phone":"012-353 2148","country":"Malaysia","city":"Kuala Lumpur","zipcode":"52200","latitude":3.1929991,"longitude":101.6315597,"website":"","photos":["CmRYAAAACFirmprI5kSVg5XBDhlJMbjXWacLcCx4OaT7pC4fqJN5XNn1mAXhdh6fBF-bwUDkoppWQA1rsOUjyZ3CQR3TOOH19lk0bjxZH0qn611QHCw3DaicaeYvomijH311flGIEhCgknW44gGrhqSRIdT-kEx2GhSGzk88kvRYzaD2yXtZ3PbH__nmyg"],"placeid":"ChIJvYaOvx1GzDERWpNACfBa2_o"},{"name":"Hiap Hoe Loon Tai Sdn Bhd","address":"Lot 26375, Batu 2, 1, Jalan Indah 2, Taman Sungai Pinang, 41400 Klang, Selangor, Malaysia","phone":"03-3342 0254","country":"Malaysia","city":"Klang","zipcode":"41400","latitude":3.0725811,"longitude":101.4317113,"website":"","photos":["CmRYAAAANh8GBVTw9OYh8GufUaDL1KqfOZok0UXg3TjIuFENS-oh1TTsuVYaIlaaIx0_9NYsKtdb7iK85h7yNaWpSzoGwvBJXRZDpPTbOqqezYy7gXglDrKcNrfHC6_3DN0L1TTJEhDLzyA0eRCG0ClMpfeTwYz6GhQ8rgrDpT8ipzpiYl6KeBZ6Y4SVAw","CmRYAAAAK8LmmYeHBtYBr3ump6ed0o87sB6t3ZXmBHk99p49S_2l8ELK5Sf8mKuc5cG82_lN_Pw9hD8qP__qxeziidO2qzGPVdkV5ikQ36axZQFuJLnj_bMvAZr347Q3Q42hVOphEhCmaP8I4RseQgvx_kHXfO5xGhTtb2KCLcaO8hQViEhi8sN3FnDxBA"],"placeid":"ChIJsd2xPoNUzDERo3-hpbZNB1Y"},{"name":"Tyreworld Kota Kemuning","address":"Jalan Sungai Burung W 32/W, Bukit Rimau, 40460 Shah Alam, Selangor, Malaysia","phone":"017-910 9220","country":"Malaysia","city":"Shah Alam","zipcode":"40460","latitude":3.000991,"longitude":101.528095,"website":"http://www.tyreworld.com.my/","photos":["CmRYAAAAAGRqwLq2rn26pRc7fmfcEq1sROWyJWAJ0z_Iewuq3xzxaMsxEVyvpdfY5KE9P9FLrT24B7K2d68in5NrAKZQwJq4XK1CM4JTHXnrfXMj1mWsc3-S9M2YdRUJtQV42ZYMEhASkjo7v1eBVBdFh6Xql1arGhT3Nf_SuEn3qLROJryW5KyMCjWYNQ","CmRYAAAA3w3wO65q9wic0K0_NnUjkg6KeAaS-GsF4TTVZhx9sELQ7hx1ke_VEw9IZouWqKy6IaW1EitfmVZk1DBCkbS-dz1y8mTdIEP1w8YZhpj7fHH0uSAH_1dHZ-CdgyloAdaFEhAkdJ2IEYQQeNTionkQXuCJGhTXK3rjDJUYqHta-t8-I-SfsPMJ6g","CmRYAAAAmFvoDpR19D2tlpOzzZ0QeQmVpBKUNJG3Iis_IvYwqUiBtq_TkRxbmo-SWJhZPrhk4PavqtWOk-EV9MxpzLJEO8bbsWjAXtVOeq196-gXgew1KndBX0QifHy0jh6192KUEhBuQByVFn1-iFVZKIgYtA3YGhSJnnTjbIZR6JrsAG8ScXtqhagmug","CmRYAAAArn9oSq6XttsEvzaMbE8VQvS6i1l1GxhI8924j3Z6kFTN6CWDs_NwvQ28yowv5cEXLf8s5_EiT7_r-YTx-dCZsy2wIcuro697XH2x6txMeZKPLFKP4_X72QSXSCnLCVSYEhDNXtFJrDzVzza6em7JBBtKGhQ5CFtVFWqgdrJxYhIbz8cxA95jhA","CmRYAAAAk9YjpAt2R3ROiQEior_Tt0g1AFURE1Qx4N4Cey0QL_oHkmt9GsppVhKk3d2GShC0A3BdoBa7D8M3YvdYbYuEZbzitqrilF9cHcNN4eTJK9iH5sO-s9zLQWBKGpwxnZ_QEhCdaUV2oIzhasrK1r_Cs2xgGhT0YEHrmmZbkxDZRRhGnxvr9Vq5RQ","CmRYAAAA8dJWOvxLWpWM9y5Cqdy8FD-Q4qcG418WyavH4wBRp5tsU0jc3gHJl_nSINSdZO9jjoXvmeEEE0kHgkuxiU08hulnV-GIA_jiPBE3Ra9E2GVF7XwUOHSklIQ1B32WGNKPEhBU42fgxBTU8IoZmrTtZA1EGhTu70opU_RND86OLPxKgx8zHJrH0g"],"placeid":"ChIJf58dKoKyzTERur3-fEvIZpc"},{"name":"Tyres Pro Marketing Sdn. Bhd.","address":"No. 26-, 1, Jalan PJU 5/11, Dataran Sunway, 47810 Petaling Jaya, Selangor, Malaysia","phone":"012-647 7055","country":"Malaysia","city":"Petaling Jaya","zipcode":"47810","latitude":3.1528038,"longitude":101.5934193,"website":"https://www.facebook.com/TyresProMalaysia","photos":["CmRYAAAA6sSMUce5iPrG7Z6Grn7tQUAPgYiEJtclP8QBJuuc9dGSXUr2EGCw8Q2zD9uK2vjlwvjPxROXNUYD55hEoA_51_xPwo_xAAr0JY78FKXrKMDwqIL44fbilm7d7jSIivZPEhBqj5glYQplZvjPNU6jb_USGhRmhLchcx_TDTSMBS-bKXOcoydG3w","CmRYAAAAaFZ2qc5Ix7cdG_PGmk-diBNTTBrLjcrGVPX8mkxNX83g3A5ye_SXTAWWmjUZ0xNSS6WrJ48xRvNmf0Spto9uzyf6mLeJqb4pGkZUk8sSMlNN4sC2HZto81iFD3WHhyVEEhC6_0dSkWM2hCh2gXV8vpPnGhSR0asUePS5Veq_wlzpnbkUdHW5EQ","CmRYAAAAxwrkdeHks7b50ZyaoJU_tm1MeEKtvKs-pLWVf-VpMNcs-9bzBEGM5oJxmahGy7ZPx3uXGBZzwwkKGp5JwVvmosJwSoX1wppqQ7OIBD3TbBheJ-8d3f5IrrqNGlTlCjxzEhD5lyrWdd6QSUGVUXqgsgwRGhSFZlWyaD4ob1E5lGamNwluYoUNIA","CmRYAAAAyrScXPZWhOu4B1K3fVQlvx5K-EBJt7Op-Y9CBlpYzqPyy3bWduiPRqKRwmbDCheThGw9BdB99Hcv8fP-JGM2bBM0S3KCSvt4HSbZ8A-xeXuRf1gS7dx2dimkGo_c29hREhAm_HGCwBqeWGBoYJ5CfdSwGhRVqs86pRNZX1Je4_W5tgoQ35Qdrw","CmRYAAAANIQyTIQalHNXN9rQhk5j66dgFLvJQH6i9jh1FhtwSWsoD5sHiGnk7FBENt0J1NITUFisRHFsxHEJXt5o8j_20Uiqqhv7Bwb68BKXNV3wpIU0tVCptpCWEl34cEaEF0z1EhCOKPjRrDQHPcrMQPDelb1nGhRqaMN6l7eVF64yd6RY_hzI-zoh8g","CmRYAAAAIrq55sqXRKhdllEt81pjLWJZscBv7AVctkLvpduQrhTyWolJYyipNS-oFD7qnARVC9DkM8srv5I707XhbFglXF2DhaRN5L_gWp-eLROiYhjrVLQCm8QwGiImwqhG9inREhBn1DJcHvftKiPGC_dUqNYDGhRhvq0c7jo14adn0mug3IsViUejag","CmRYAAAAIXO39pUxZviCrjg2aDWiXZGxLhrs2qW-YvRuGYc8wkxB-4ehBUI9x7nGALSal7wX_41JUvSAKwfAF2u4alWcDnpbeAjSS0FsXCuUthOvZn1fSGwLnCYLvdLKnP3LVxy7EhCTLUrDP3T4lHv7Xyooxml_GhQM5j5LxKyS0dYiFAfsMG5MtDbpMg","CmRYAAAAWViCnzyEnl4ovBPpZbToN_KNc9ZaIqR2pfRYROETXxI1BpdEl5dM9XYoa-NYkO8M6wlCT3R2xMKDAvlu_JetbWYxG83f34Umu4CV8_D-tBt_bSxTqnX9eAB1Bqi5Tw3GEhDCunxmG0tqXiBn5sNrBoYMGhRJ1T4LqZVxXdTUOpUV7dE6fz6RgA","CmRYAAAAbFVwa5qxv4rZJr0QLmUeSn3b16V4M4iGiN1TGD-gts8nBHkC8wD7x-3R74TuXyVdl2iitCCw8uEfTDRDYDUrWD_f-T4wagauw3CxOgGaNcuX730yOck7soGk3Jv7827EEhBOesK2QzCB1cbQJBS8ALHgGhR9BlYNMDgcFMDXYLROe-_1bd9RZw","CmRYAAAA4URVnEyQBmS2VYnr86fH5rWaAsnXCvbnPRSSPL8wBYRVy40OV8z_Zkykhd-R0JxYB7DO48o-iSDZQAQ-3hcK73BNdcqkdUAGgBW1KQAGQlBAZ_jHmP5iK7fPBGCJXzRYEhA9Opwk-fLwRM_0NwWfqn1uGhRUtWAzMqO-gc2MzYqXyQw6hm9vbQ"],"placeid":"ChIJlR3YBiBPzDERPoOmOxoI2RU"},{"name":"Segar Tyres & Auto Centre","address":"46, Jalan Manis 3, Taman Segar, 56100 Kuala Lumpur, Wilayah Persekutuan Kuala Lumpur, Malaysia","phone":"03-9130 4646","country":"Malaysia","city":"Kuala Lumpur","zipcode":"56100","latitude":3.0899622,"longitude":101.742938,"website":"https://www.facebook.com/segartyresautocenter/","photos":["CmRYAAAAfJuCv_jYmyG_ZOUbeZjVwZJOfwkMSfU0A7d9_EB_q8eKH45V4Ha8hzBoIrtxr9yoWSsYMDRtqoIDgExJZHdfZMt_cncTsg0WXKm7HJUoyCwPedgI9icrqt95vymwtUohEhA5uq_J10JMBKlg5Dl0_mFbGhR1fhyv-m_yhCMxkUztscRKR8ixTQ","CmRYAAAAikMOVjEcsHo1m4NDBEfWgdo_5XxzdXzUMrYJf25k9Qa6_Rzre6OljQ0xWOnZ1ZqGwzqpg-om_x8WHOkRwRv-2-lo1FEsIPftJZ3yqxFcnoDS7dwgxAR2ogvzxzek3I1REhDre_e2DuR6I-hgxWE-CuiUGhTkmAW1DVHfstppNSlNou_WgaZSXg","CmRYAAAAzmdpASVqM8GlSV8gNFeb8z8D4ZHXF0eQ1uW620mUoYvzFGAuGSTwQNpwUOqCQeBXayDgafHjCGr6adEFTs-Z6wKtsNM0xW7rz4ZrSN_8cr9zHkvUpWpDIlefdy6VhRrTEhAX1mw0BGcUP-787ehynCzwGhQe3cL6Wv6HOCThQxslGwHMkPOF9Q","CmRYAAAA33buXtBa5G4z6gQKaNIhs1Tbrm0bTwIudph-P15Hte6XOsKZIPkXCDP8We-_XRtrW19Zql63iiOEDZItuIVntT5KDktC2vo4_rL7btIHdDiX1S37ShMjvxyllj-5Y8NdEhCTWDDzNlICmqQSF2rVMPdJGhTrq48uOFAHDVmlxtayzd7ncrEBGg","CmRYAAAAD1uSyntZas9ZG_LOSwNKeFwCuXNqe7BNv4eVu0p-1uWF2Xg8TY8eN1ii06PGe6xFnqqTkVGiSUtkvR1-IjvrpWjnz8HNC1O8oHKU-d4dOBWC718HCyulwjPwrgVhHA5NEhBIHoHQlXJeA7WioqRTyUKlGhQBGM_10m4cJyPsF60Vptrx6z59qw","CmRYAAAAuXM-Jj6vLZF8bKMQMnMyFKehWq9YhFzi00k3NfTljPkkS19W033mHulQqohf0Q8FQvzak_bZmpVz8X6aoQoyOXhhwDr3rWo_64bG-FJZd0M5cTE5GSUXL4hqCdFUFeTuEhBm6XArv8c2U3euHQHR8o_IGhT6Qd0HPPYGMW8nL4sQpUX2IbVnAA","CmRYAAAAXEvcEjL4n7IIpHV3pZo6k0FrtFWZ8MrcRStXKcuadGmKgxt1KxjtVK0PW9rySqUr_8rhmRLYGFojuAGtNDU3wuoyT8Lvfmql0wTLTaKlxUamrLgpZBlT55EoGyRdUp_1EhAKwbpWJfXRstRamaiGSgs6GhTnZ89dHxgQ_ZEp_lRE9yoUaaRsRg","CmRYAAAAYRMQUJFsLxXTYWVzyV7PqNtHXHWKxu0N2As0_UYw8j_2A5HStlYU6W_fk1j5Hat9Rn5p7eJuvR-JGjHP9Ow2uToWQytdog7Ji_tH0ueKHbgfiWD5MgfOYFPfeBW8O-cUEhAeGHFsUtTeyx7GgATIPUjIGhTAd_1wFs2nsbtrazt0OVZlEuwAgg","CmRYAAAAkmwPkZJ1hAJUFatpHpidXh_fkMcpe0Y9l7nTIEQDhLQdxl43mSuIoTrMk_3KrbaFVsY2XlzvKQquIWxGSss_C-xpzOjnJVtTCJQFMbBm4AgqGOXtARMZna92I26p4j8JEhCsOuph63QfLvAGI2Y-U-WdGhSXCFP-doMz-wvUB4mbCk7phImk9w","CmRYAAAAfyG7fWt4H0Bebcel72xHojEMQhLkJI4HOsMr7pRlPZvOk7dI0Mx2jnrN13aJf4n9vwr5VvS9RCd1lnOIosfbX_t8jUEtDdvnkZt6XJFkXv_0D0ajuKxiX9M4W1k_KqXAEhCtSVkEW4hqX8f-69twl4j4GhSKQ-2oegDJfN5SIW1tEZyXaGFc4A"],"placeid":"ChIJ8cIkpbc1zDERzZwh9OwPuG8"},{"name":"Posh Moments Sdn Bhd","address":"UEP Subang Jaya, Lot 33, Jalan USJ 19/4a, Usj 19, 47620 Subang Jaya, Selangor, Malaysia","phone":"016-238 6560","country":"Malaysia","city":"Subang Jaya","zipcode":"47620","latitude":3.0308974,"longitude":101.5874876,"website":"http://www.touchauto.net/","photos":["CmRYAAAAXFgztFRFPsOpmCWOb6KU_MvLmlhGzzO32HOMYV8XfEjsHo74M06T9JlS3M8AW09d-8yqsccg4yl_RCE-KcO7lyJUessv7hA4b8XiV2yudv7A69h0B03taTye28lAoi7rEhA_hMIeCYpVsWBMtwSr8ubeGhSaLl9EGc9WhbKwjYxnk-hOOY4IUg"],"placeid":"ChIJ6fDkCjSzzTERt91zEi1muwc"},{"name":"Lee Seng Tyre Service Sdn Bhd","address":"LOT 7049 F & G BATU 2,, Jalan Klang Banting, Kampung Jenjarom, 42600 Jenjarom, Selangor, Malaysia","phone":"016-268 1212","country":"Malaysia","city":"Jenjarom","zipcode":"42600","latitude":2.872614,"longitude":101.501868,"website":"https://www.facebook.com/leesengtyre","photos":["CmRYAAAAklCrcaLawpYcwM0UHge7GOpCj6xc05LhxrEIBMoAZh467URH-TBtxBI4fy0T8cnwWgz7mL6DRApv59zZzqrJRdglHM3csR7oL-5YByenYzwofT9Y-I3IOlfDl-xUae4CEhAMh9XGFM2lHOE84PLLKa6RGhTbaTjR3pt4z9QYLexAm-14smCqXQ","CmRYAAAA_PX2QCqdebS4TEtW3a9TTaGSjeNzscHov-LRTxifj54BXQutFA3R7bP1ycDFFQ4kHX3JOhl3qFM4lFScW1Bx1cj3ugeshktzGqQRayBkvs9qhbu2bDklAHy0n2JUZCEJEhDHG08MZmlVeQgr5ij5o8_GGhREXJ5GnP6Z9pJI5p-Iao7MupkmTA","CmRYAAAAXVfbDHfL6hL-I9w4ewPtP0TSeN09I0T2xOiLYuS-g46r-cKrmb5puQZZjaVsoVxOR-HKuK0hH9qkUxkoPJiRR7Mw4xRm1KUOrDvko-6SrphXvXxMz-Z8JFTJkiFOi0kzEhDABtaQhye8VNcU-t8yeuP1GhSMxGxfn1Y-I44A4qq6FHy9CghSFQ","CmRYAAAAYYyhIrjMMGDugoVhn7zsen-O43PbFOCtHUS0WsHhkzzW2xUyuOpLuC7p_SK2TvWTEzxD_vhvrdNWNcleJagznIzLyofu27gNFAIws8BS4OLxkCOUJgRhqiBijAPSpKCYEhCCrRPd4bzaqT7eNx3No4etGhSGpwzncCv5N4dZFrBSqGfHbV_6tg","CmRYAAAAWs-D456Wet-SN0nIAfEJaTLi4lcgoTi8WT5tGQTbNemmfZXx5blbo_0jBHs0eC-eu8nNzZ6PQ8vfBYT33XLpS7sEWKrPXd8vkNSsjA3TrBDrn82II8oDCNElCnPIi5ZUEhAfKAyYaYHBuRYfCsoEjORsGhQWrCJxaZSWr8TgwhTpgD3YsrllMw","CmRYAAAAETG788zdxdx-JITMvdJQ8jGApOk1f_myFfNVaJzKRMKvVLtRG8kiCTR-H-Cxz3aWV5PsnAELPeGKGlH--KOQ-4AhLu0zivWITtoUiyta79rjOKewBl8soAW9dYfjzvzUEhAxRBfoOOgnrFK2quypJl_dGhQKIH7-USe2mzf2_BGE1tBA2vfSjw","CmRYAAAAhQ5nPNIJLyJ0yc73Oo1troFQMYNiNufd4eMaCGJB1uBdbjKAbcFGvC-nNQL1Ngnlv6xQkyxDgiAe_PlXg7gfQOPLHXvghMMPu8bf9nqYUlhe_LzMmTqLnr6yRuWk9TiJEhBLXNYWzBXJrd5hJ7mqtCcUGhQFsgHVWGLRvc8tWt-a_j8GBD21_A","CmRYAAAAxxQ7fk2a3n3fprQfIm5kmvhiM46DXTK7twC-MJgXWAqoHBIispUdnOH23t8wYqoMW2oAC7GajynZzpF3uq8YDjpbKggYGoH2ld4Hr3txNElDffEAqkdFUVvBA76GrvrNEhCnTEFiy_7xUcnIPvnyX3RNGhRuTPfs7o91o5q-HsshujbiyumezQ","CmRYAAAAIMWC5WtBP5FR3SQIh2hr5hcPqx4fOJMoaWJvgJQRkSwX-7Czrt3v5B0eH53RzYS8FDWehlD-ymy0WVU4uIU3O9o1zGeYwuVIcrydJSY766Og_ijQ2KPHYTx22WMewBJeEhDGe50FxiCGqLMVch2CERXWGhRsgorTlCauqZwg3QghLL4-bza2aw","CmRYAAAAs0gYOkFoLGp-3HEOr3A2FSdC_gYQM92tOo7H26Q5nHuy9veKy7BlBdNvICWtcp5VqY4XwmwBAoDtY4zKbJP1UMvXEA0To-QBiGPXoib2F9o4Zd9ug5QgSRJitOEyWIR6EhCiC1J9gLYgzfKjgYbrpRHZGhS3xVdrnNp1iplJM6m0X249NuQTig"],"placeid":"ChIJhWC5_GClzTERcq4MBwCDk3Y"},{"name":"Hong Lap Air Cond Tyre Auto Service","address":"93, Jalan Kenari 20, Bandar Puchong Jaya, 47100 Puchong, Selangor, Malaysia","phone":"012-399 5819","country":"Malaysia","city":"Puchong","zipcode":"47100","latitude":3.044698799999999,"longitude":101.6222892,"website":"","photos":["CmRYAAAAp8-jGdFKP0XREigg09QHKEnJQuGrshAwa6Z4445tYXKyMTRx4oGyiawWcuE9b_J1VswoA195IJIG5eHxPEOkaIYVuzCeMf8kbrxsoRjAOIOBT2pFs2-7JJx9pGxnmTsREhBGjQJx4Hq323fPjSdfWr8MGhQo10IOrcGEf01h3JbIYYr50_keqA","CmRYAAAAgwn8su1onnrdP4i6KySnbBgI_BmWqFrOP0onM03FEZCDqKzGlKmeGD1HMZ7Vga3_MeY7KvTY8QLD408636w-k9JaaSVp4l0TUqgQoKG1C45MqYKn9KQbZ9HKXuJ20JzyEhAK1DappNe19erMfHRggx0SGhQk4x851_cHzh_-RpCvBPML-hV20A","CmRYAAAA5EZag13crOzwSzNdylnAWOHiHWKnybICKeTS0du0vBGCMUhw-8Jp0D48MszYPbK20Og3rQH62OddNgLeXc8GvJAE2XZN-bO3kG3jVjqychZTlaLmaeSs-olJA7bz34QmEhAJhlQeQwhD97SWB3AKO1eKGhTldGLvLH9CYmYbU-iLBOlcP5T1SA"],"placeid":"ChIJY4PED1pLzDERF99Izo8d2Vo"},{"name":"Acanta Autotech Sdn bhd","address":"No.37 &39, Jalan Tasik Utama 3, Medan Niaga Tasik Damai, Lakefields, Sungai Besi, 57000 Sungai Besi, Wilayah Persekutuan Kuala Lumpur, Malaysia","phone":"03-9054 5089","country":"Malaysia","city":"Sungai Besi","zipcode":"57000","latitude":3.061035,"longitude":101.711018,"website":"","photos":["CmRYAAAAODlJB2P9Eab1RXpL3lpV2p83ss7U60KF2tUdIh_4GtWima4A1qsbwZfrnYGg_hvZJVpJ-iUKH1O35JfncmFKzIpuiZS-oWsEhKnCJskM_QZDoRTPUv4EuzwD0hvVJ0HSEhDp1FY4N4sCSlYB98Jhe4uTGhRCs4uqM71H5Hpa69B8HR8nU9pISQ","CmRYAAAA31QMkUHjqztc4QPE2uNfm8_DLFSt276Nt4cbJwxDXtYabVYfdJ5v8ucpZWzxDnRcQc6G-f0qw-4vRkz2PRN97afecg5-V1gmaHWTsovqfirOmRXQBVL1si9plZ2gd1A4EhCNLiRC4JnFZQnvgmLXbyXDGhScPG7KMJ3MrCxOvm07oS5ErMOISg","CmRYAAAAv0PF-uGsZyGqqD9gwGpzswLiU0GOaOCwhBvMfGyEgjphf1LHZDLNTMdVcYF8ZPqYqaJW7x8K1ktMEKEVqMj6MKpo8g-YegOd3iigZUtruOwjM0235-qQc5-rIlg_6nf1EhBimXwsYVBeKG8tnQxUSy_4GhS70MuEp23pkkVdiFa8rpL7tn8yFg","CmRYAAAAePsxKT8so0b1AuESjNHSmDYf1etWfeQRF25m7DW4BD29LlOfZOvxhTKYa8B4_NXgKMShxs3KIIF0sm37RGMFn1lzEfbGkNT1hCf9bEHf3BhULgwTeEz3Wr8U_UR1QI_8EhBLJ4EF6_0dgkUK5SPGjyEwGhQixuWBlCtdgUO5Emvd_mnjU45dgA","CmRYAAAA9taX8SkR3lPCDpsiv2-m2-cn7K7eW1g23AvBLjh1Ie11_-Z5OgU3PkeGqrH6Hq0rbJQCP33anIG1oQLAczISFW4U11kWy184gcxGweoti9OCCivgHScKfk4da4xAdEavEhAhDiR3C1XKD-nirdhTz2LlGhTacsKv1iB6cex2T2iYsQoyfV0NUA"],"placeid":"ChIJUY6_EmM1zDER7PA-g0rHZ_s"},{"name":"Weng Choon Auto Service & Tyre","address":"15, Jalan Perdana 4, Taman Segar Perdana, Cheras, 43200, Cheras, Selangor, Taman Segar Perdana, 43000 Cheras 9 Miles, Selangor, Malaysia","phone":"03-9074 9185","country":"Malaysia","city":"Cheras 9 Miles","zipcode":"43000","latitude":3.092007,"longitude":101.763145,"website":"","photos":["CmRYAAAAd_RecvnAiwxwsV-C_aUmYm5BRYLYUeMkX4KIP7eAsqtxCfq7T3ewb0nSEIhvF1IL5Zj6kMKCc1lqrl44sYYLGqkZO4Mtg3abYa0gI6gs_CxkgU2JvxnsyPrLju__uqaIEhA4w1mi8P5kiepHADMnITzeGhT4hWTc0c8BdB31DhK8xWboUdzDxg","CmRYAAAAEq7rs92my5_EWs8TFfUNwjsBBt41-ns9rixbXvQcefjZOeH0T_YKPd25iZ_VhF8faz9REuqLseuYWtTIYgITdUwP1uVuYEDpAdEvZCq8nOFcJWTQJFzTOEQMRChIn9x6EhAfFqJjKC45yKQA883ND-LCGhR1GTFhQspSDEMjiBvyJjvsdXyxZw","CmRYAAAAGqWy2ZqLj2BilARb9Mmfx_hA4AvaS-LOKm0P9HW7PS2rSXhLoREA_ataH86r0f-4oF0Edc6gxuf6xzDHgf-OQWMT9cYJ1V0vJ4Wl1GPyLk3ASzK83Zurn8_mXBnro7DJEhBKond9_XWDW7AV1WC2hEbIGhQMlSm0DUY24aM-8ofoxMf3iW-0gg","CmRYAAAA4lmxySqp8TtAy7KH3sEGf7EjDLn5XgSprT8HFXPp402_TAuVSmWmkQxIklxdEzv00Jp7WTWnWB-qBkSZz192MtuVf---7aXbU3m6Zbe2Y0tTe5AbB0wr953w8TsaDxsbEhBVqGfaKVT1PLWNdxR24gxNGhQ7pDnY1RFO1g9bPbmeWgXrtMYUVg","CmRYAAAAnTsCYYI9UxAFYTVHvX0W7tYdvENMX0XvNEMONIvDmj1uknbOr7xN43HHvE-F0fXOuTEoDwavLIZ9RQPhkEGlbtWv7fKz5YOzqfQjwThgOfEGh9judyMP3UeDqAWIZF9jEhDiYgy-dkXog81Nfhqlj8-NGhR0KzN_Ls1Ucuj1ySHpcq83dCquCA","CmRYAAAAypiSTu0uxdVYnIU6pBXaJgb44HPHeZkbDOf2h5IYCWx67F_gQ2bcl-_lQZPTcBI9wJg9FqqpEaAirE8OF4tE0SKnpB31Diz5eRE7nSrFGIRmuLjrJP1YlMlJ43Hfo5pdEhBhaj5eK0caDmKTm8AUBLkEGhRjUFbHOUPxcx6X3e-RIiEzXa2Zqw","CmRYAAAAMPLZXOO3sfyW8qnIMPnkyCMk8Xc5N9qMqqBXXLFWQh4xBf-4QJmoRDdd0Stz5lV7lFU2O4_MbfNM50W5A-gZgNEbUorH6cmeKK4D3t0vmhti_twkCwPHD2H0yx5rwmviEhB0iYzdsD5AI3lt3PYw6cz2GhRmXmAL_haAxNX9u8Q2xh_Frz3YWw"],"placeid":"ChIJtaufzDc0zDERbZ0dVZP7a5Q"},{"name":"Soon Loon Auto Tyre Enterprise","address":"No. 45, Jalan PSK 2, Pusat Perdagangan Seri Kembangan, Selangor, Pusat Perdagangan Seri Kembangan, 43300 Seri Kembangan, Selangor, Malaysia","phone":"03-8948 2488","country":"Malaysia","city":"Seri Kembangan","zipcode":"43300","latitude":3.0130656,"longitude":101.6994518,"website":"","photos":[],"placeid":"ChIJoeofaWe1zTERtpTRKFWUtNY"},{"name":"Kian Sing Tyre Service (PJ) Sdn. Bhd.","address":"45, JALAN SS25/32, Taman Mayang, 47301 Petaling Jaya, Selangor, Malaysia","phone":"03-7803 1159","country":"Malaysia","city":"Petaling Jaya","zipcode":"47301","latitude":3.113466,"longitude":101.598755,"website":"","photos":["CmRYAAAAIXvGf2lr7yOztRP8yr8QaRFBovsogQfIT_4iFHJE_1b5rAFg6qJ0lal7S1gvGDcDgPVcBjikEUpRoc6B4U-droPpoHRVkHGbcRZtSffL8IOOpXfZyBz3iXpgsj_9ZB7YEhBit_YblMLlknQ9sLbm5ORQGhRQ5KEYzyigEoAEQ3rRRNFsDeQ_zQ","CmRYAAAAfUjqmrCpoFupA49d2r8LGnY03E8nvlzlWzf3F9reo2IgKRVRh0t34DqKbuU9IZjb09QMBBW9t-AthAX7c9gH9oTFUmVJWmaWSZbHZmSnf-_YNVAxZ3yiTIHGpQ7Yu53UEhDqPGtd5Ftma7YELtuRTv8tGhSVtV_wBX6vW-4nRgUa3YtBaz8MyA"],"placeid":"ChIJmVkyv6BOzDERNUJez-v57Ig"},{"name":"Kim Heng Tyre Service","address":"16, Jalan SS 14/1, Ss 14, 47500 Subang Jaya, Selangor, Malaysia","phone":"03-5633 0266","country":"Malaysia","city":"Subang Jaya","zipcode":"47500","latitude":3.072854,"longitude":101.58817,"website":"","photos":["CmRYAAAAFAbwlvk6GOdG7QEdeNhN4liWFblyWi6GzAuAycHyszhsFBCEpQWe0SMKIIK-eQHl5Cz9ISD0zSMSH2vPPFVHSmxfy-p7L8f3_hICZ3JW29amF_B7SbnPTNUxHQR-rGA_EhAHXSB_c8GMvJq4baQiZI0DGhT7n127Rp1_g1rHvBkpZ198uP3iUw"],"placeid":"ChIJdwwy4fVMzDER-oJIbCD4b_s"},{"name":"Mechelin @ Jalan Sungai besi","address":"No. 164 D&E (Lot PT493), Jalan Chan Sow Lin, Off Jalan Sungai Besi, 57100, Kuala Lumpur, WP Kuala Lumpur, Chan Sow Lin, 57100 Kuala Lumpur, Federal Territory of Kuala Lumpur, Malaysia","phone":"03-9222 8050","country":"Malaysia","city":"Kuala Lumpur","zipcode":"57100","latitude":3.117237,"longitude":101.708323,"website":"","photos":["CmRYAAAAbbtpbbVB_f9tTPyjA7qTkTSBgeMRCL0wGK6Zh7haxlwnS79Ni9sWYpnTi02mhB_zUXz8PWYBU-FVIBQwVhHk1QvGHN38vTsZmCnzZbmzM4v9zsmfc_ukRz1P3LXY99RFEhAiBE5gJO9fhkHchqW7WPl7GhT5bkZzNvD2_2DFmbjBvB9Ld7NIRQ","CmRYAAAAdV99WnXeLS_Q5gV_sEqsLr_KqauJupHB-a3MzTjYU1LnKrqJBIZBE2zvY7gbA6SpNAh_N7-3VRq-4JsTbiISG_tOxWA1AyLEUm34y9H5LEnWAn-w-A2Ocbn_1Vr6JcuIEhDzWVUfHorfcOINpZWgzJmnGhS3-J2KBixryyCxxnqRzuShj5dAKw","CmRYAAAAreVI_MnsKDSENQAYVfb7g7Xc1MLCS-I7Q01LTYEFslHpAbgFcco28tsby8s8UkDa4cYqZo-Cyp5WDrQ8EODSOD5c0yZrqbPfk8swxpddrXGqLSWR6BFfEMNo4uR-IgZ1EhA5VQYLgCjMbuF1yP8bcy86GhSiUE8IsjbtKq6IUI0p0e1HXOiP5A","CmRYAAAAEliYYj3VKVRqw842voOlrXhU7d53cFBcrPowopDY9BXfv4tjCsZiKI_QFJ9P_75myzA-xlkFc2Md7DW0PkL-Xkh1LG8C1cDbVtS6b0ZgvZQRBwcUcn24prsP7LgjvfL0EhDq4OlsnfO_M8JK9OYudoHCGhTBbgStp1khctXwDfbG6GSLgI4svQ","CmRYAAAAADRFzthxYA5GatH-DUEIr1WbxZhXwUt0f4USnvZ8FxhNl3Qs6Op4fBCa_0BIz1RGCOawScT-ZGxNMg16iG7E4Fi-f0JcCewC4hmapooRM6YMLxXeHoyjWjsPWuJ9SszCEhCEnXQ6Z_1TIikjUBHVs8b3GhQay8GkKEwxXStglUNfqmEwiDmGeg"],"placeid":"ChIJY-IZIgI2zDERaIv9xf_cM0g"},{"name":"TC & Sons Tyre & Services","address":"Kawasan 15, 41300 Klang, Selangor, Malaysia","country":"Malaysia","city":"Klang","zipcode":"41300","latitude":3.048761400000001,"longitude":101.4522373,"website":"","photos":["CmRYAAAAc62DjaH4l_rbjwte29rIx-8ir922btG_EJvSPmEEIazz9QX6VrVQ1sZG49eTFaR1ruf5x316cseMz6iyDskGMDLFVC-I3RdOBledKqenoOj8S8oPirjOiH-LzCm85l-PEhAP6D94lu1KuEuP69ZA2plgGhS3zbn2P7DPz3Fcu8tyNS40eN8ZJg","CmRYAAAA8gLZNrOa2GTvbDL5bCfw0sRsxOTIzzLEzgJ-IreMQ0wFUizArNeZyTcxGZWnEfOWl17pB6vNoKCH0B5AxddKSfnLGFnt3dbfoErLaTjYl8pyoAFeH1_73nbp8JU-tDgjEhAse1xrxLWp74VDhhqJusQZGhTWjzWWULGlpjwZa41M-u44vow12g","CmRYAAAAAQx2NPkvuGz0fbEiLyQJUuqwgbB8H4DQW-ZvYoxm-Bt-hervcAVKXyB9wc8lbaoetoczVpsYoNdf1YCwT_uXAfXh7GqC3UBKzfQ4FV7rrmyUQzybAZ9zDpOVkFQhF4GKEhD2DW6qfdYBFkkFUYViBd8nGhRNqxBJHK7HxQ5fwt5LA9ayrio3ZQ","CmRYAAAAeEbyyJUxzqNmDQQAfxc-h_tnNN6knOwhRjElgMrH7efspIQ6elB2FvcnhJznRdHO1q56Hkk3EzKqkCi-fcSn8pof1UA-UUxTqVn1wjYl1CvsRRzUSRBf_WsbcoP_Rp2AEhD1o9rGkC4Qya4PjmA99u63GhSIYxE37meTJ2GnpjEZxg8g0dowRg"],"placeid":"ChIJX5ROikZTzDERwbBXeEle8AQ"},{"name":"Top Class Auto & Tyre Service Sdn. Bhd.","address":"61 & 63, Jalan Ehsan Perdana 7/KS5, Jalan Banting Pandamaran, 42000 Pelabuhan Klang, Selangor, Malaysia","phone":"019-991 3111","country":"Malaysia","city":"Pelabuhan Klang","zipcode":"42000","latitude":3.0049727,"longitude":101.4189094,"website":"","photos":["CmRYAAAAjdnEHAai7oWa9OynK2pzevxMFBAu8XHxhIEPYrgKwr4tTwsuSQcpkzFRa4uqANA7KPCSPWiMRjBHUb64VVt-lYWsEC6d31JJpyPZKFVG-e81Ie_ucQgn4YJa6U1mJzjaEhDTPjpsX-WIKaPBrdBsD5kOGhQ_-maTlwTAtmQnKhsgVvNNQfTEGQ","CmRYAAAAHhFeoBK0AUcL3U7NabLx9R4MaPBqNTSzfGjqwAmutc7hCWU8u3zI1NmjEfZR9YzXagJskMhcDadQccs2V9yIf91i3QfJNqbuyRGdnfEMKj6yx4WR4Ik5CBn30jzr7SfQEhAZFASDLcJgA90EuKlOgd4vGhQ8olpeRKGA4YSyTVEZE-oDNSVtVA"],"placeid":"ChIJoY6-pXGrzTERDCnIpBWXEaU"},{"name":"Syarikat Kee Hin (Tyre Services)","address":"2, Jalan Klang Lama, Petaling Lama, 58100 Kuala Lumpur, Wilayah Persekutuan Kuala Lumpur, Malaysia","phone":"03-7982 2276","country":"Malaysia","city":"Kuala Lumpur","zipcode":"58100","latitude":3.106354999999999,"longitude":101.6786002,"website":"","photos":["CmRYAAAAmDTv3_66MdrQq0qmKwHKGME_XSqCnGoZU6It1uQiu0_lmuUwoLbxpuKD0muIhwvQEVJK4bgrMvaIVw-gphOD49eVH5uffk4WBhBINrRmK2_mxipfwxNf52fPtfvJsC6BEhDr2DoHuxlnRygomzQiQLzoGhSQeOPVTfUknmnnaDqsS1AMo3dAkQ","CmRYAAAA109CtR1GeiFAVJsnjh_3UjT8_SbjSwgudKnsBJid9mbYec388rDHkFB-5SCRV9I8-RU1AQ0ZPRzTN692F6mtdt_o3Rzt-VnRn6vP9ElLN4Mye9NrFD6qOkfRcHIpbWvyEhA7NwC5HAoLJ804Us3W8Bw_GhRWzlBCUnbmUga3dNEq_PtCF_PlXg","CmRYAAAA68qZTVoNJZkbUrn43U6bTr9x-rYA7Tc80AXtNn9EPB-gpIULp1urTwqKVogXZZxHadLR2AQo9lU7Ayd1e1v0TyzPAdjrb7BxtZiHH7xKN6txprRtr5m1DhvxcMvKc5OMEhAhn-rSm-VMrIVwSH8AmMTmGhRHSVHCtZeIvRwsXmOhwPBgtKFhtQ"],"placeid":"ChIJneK8kiNKzDER1mwvzErFVek"},{"name":"GTR Tyre Retreaders Sdn Bhd","address":"Jalan Dawai 16/2, Seksyen 16, 40000 Shah Alam, Selangor, Seksyen 16, 40000 Shah Alam, Selangor, Malaysia","phone":"03-5511 2026","country":"Malaysia","city":"Shah Alam","zipcode":"40000","latitude":3.053692,"longitude":101.510601,"website":"http://www.hiapsengtyre.com.my/welcome/","photos":["CmRYAAAAFNRjjU3NY9fmhUmegyKhgVwTprU2dHJv0DRPzLkbmAUENO28gktcNfIPdOZPHnuvS4_jOffobctLMa2OHz0S-FmOM0ntcEiO38RX81Py9MBMyy9-ymO87eH5bdnsw3TuEhAvX2rewYxC2DSTqrjvbmPQGhRqPoXqtzj11YgQ3PL1UUWakICGSw","CmRYAAAAFau3d_ulBxWRstMjRlxh8ujRGsD2y-svvWS5GxN7BKNfd7Ok5yzONfNV_lTLeFgqpchRTpwiLOKLmQysnsfbtYJe7mzOiW2m7lIg9BrrpXbZl31--gO4Wv-Nh_-JN96ZEhCMRSPMrDqDu7fJyLrElqgdGhQw1RnVqVZ-W6CiHR2pZPvKfoOzpg","CmRYAAAAvbbuotx0GGJorIxp6OXw2l89W-lFGGWNsubWBuyVzI0aHiEgJEHkyJl1ECUA5iIClvj8RBFyTn6MObugY2pbDjzO962BlfbinfnRxpHnAmAfPmld-AsgHZZm6e_tlUJ0EhCc8GKX2-5hRUMgDC_f1MnlGhTo3A72AbVYW1wNtSFec88BpAaieg","CmRYAAAAfDBHx-u21iJK7aWA25FWD5-G52oomifGtsG7KmQuBmwi1H9ZSdHtdyY6WT_7MVatumwzqayEtr54P2YabXX_q5C1ySOLkyEvrJjxdW_YDg0JNjqPODwSS9mTlvVMHzKQEhCKI19Wsl2KOPl_2p_sX_aSGhRZZLykwQtJoteVEAPJdm2WHZBTYg","CmRYAAAAZD-wsi-opXX7r5hepFDzESNIuDcxPNQ1oHrrTVpCbkROf19VbQE65WOo3ww_kmlkITUv558x1gondDj7g_ft0ycsBqBRQn94HMhZPYi7t1XR2zoFNFd36LrGo27NGcKLEhBRxZ4T8Oq9RMmHKC6DpoI9GhRHJPaslyTJBfLSBKJOiYOBrrX3Eg","CmRYAAAAdJznmNb4zfmSEhAepJy6xOpvwDFrOs9WVCScz6paKhlppx6wsaVdp057BDgC8brFkbFW0X39LgMBMVk4PJb3yXvlERLG7Xeic9P5s1fA9rNtgTFRfxcwulCPgs9g6wAJEhAVG36KrdjNRqkUGwWuywQvGhT2qDBtBbjxnQp-nC8uCSBuMdO2rw","CmRYAAAArnX3fugmnAf1qDwfCSzqilD-MmTJ4zjj8X3003u6tAY3a7I9YI9dLAMISn6tOvsdo-dFVYYbFH2CaAxLJ_9tgyxCrjpvj6LLmpdSJH0HUrqVEtXVXzCbbAZ4B-YFB6FHEhAA7P1kLYbaYkppou2ZiA2QGhRKCNUWjvKIzIIBAY41ua9q7tQp3w","CmRYAAAAScXx6QfwuDfdS4JQUHD5XTtVbrV8iXxwcAkPpDkSzrnls354h_jP3Na2oYnbQCr1KZyu7xzGFDYLyQR-hIon9BpHT49MNVVC5SveJ3or_Vd4PAbDm4yIU3aGDNhqlgqDEhCkZatLp3DPSJjiVbJjg1rlGhSf3_49TQCkGV7W6afRLAikDuUuaQ","CmRYAAAAORYCRGVXr-wrcn6EZqELtxVyn1DI6EePjsvAIkvXxKmF-QiQ_s4LOJqN0rlyNllOWMZNTbYmS5COyL1MZNocqIE808PJAZROV8kd-FbwbRbQgs6UoDpeZLRHXhVxcbnoEhCXNGcyIob7GvtxHDTNwGONGhRfWbX_8Oblsxz-acPFoSkvRi2Yow","CmRYAAAAI88qGGiMjzMbWJ-oRGij8J8VYWOl0cwmxxD6nX93SW7bi1sBMqKSqVHd7euhyfnDykPx08Nb9QhvkDWLw8hWJyBEMX5jQdCrwJnwg_htMkZ_QEIT9D9T1D8cnwrdG8dhEhDwLrxG3MPIsEYfCgKvaRuGGhRyq9P7P1EAbXuhTSX_i_UdZOmIkQ"],"placeid":"ChIJWf2DeTGzzTERoSbMtA1eW10"},{"name":"Focus R Tyre Car Auto Services","address":"No1 seksyen 3, Jalan SR 3/7, Taman Serdang Raya, 43300 Seri Kembangan, Selangor, Malaysia","phone":"016-388 5944","country":"Malaysia","city":"Seri Kembangan","zipcode":"43300","latitude":3.033598,"longitude":101.703322,"website":"","photos":["CmRYAAAAFWNbnirV9CObV-falKjFMyDzBBXTpJcJTPsoAnvo8qdQj76112KymNTuqLx-mSouMhf0_JX7oC91qpZMZdGuYuliFEMhy9qG22XPCJNvFtfQYH15-lUpZ46Bk4ZScj2wEhBahsV17sbapUYOaYReexQAGhS6drZmUTNFwIFB3CYItUtvQ5M8aA","CmRYAAAAMOoARW7pMdxvE4LJlLYcX2a-X_5Wu928b2-UkBJnoHhgKP7DaiOu0i9OkeH7PzfcseFUonj7Z_thKDOkQUHyJyV1ssIm1cCsp3UYVTE5450QpKroAugnyKj8Ey3Dxx_3EhB9IRYnfvRaLiAl9_k8jc4QGhQUw4jrqYkJ-7NUxLqvjunH-Ro-lQ"],"placeid":"ChIJLZ6cLatKzDERDNdGHXmX8Kw"},{"name":"Pro Tyre Carcare Sdn Bhd","address":"no 1, E.Boulevard, Jalan Elektron U16/D ,Denai Alam, Shah Alam, Selangor, Denai Alam, 40160 Shah Alam, Selangor, Malaysia","phone":"03-7859 7663","country":"Malaysia","city":"Shah Alam","zipcode":"40160","latitude":3.161974,"longitude":101.511633,"website":"","photos":["CmRYAAAAlVJOXJ0scuY0WYduXKDmBSSj3EJLykNwzMF6uHQl73K_LJOwWi5FSiqdpyfwQG0B9rhzXptfFzVtVOgmE7__ZOJ0u7t_a4I5Ulg8f3HY7lvh7V3Xqlk0GoVf3cSHilj_EhA0KGobu8no6Z139AGhE3yOGhT7OJ-ROwHfc-FK3ItR52dTsT7CWA","CmRYAAAAKyFdfflZ7LjZhNyXb8mNDWnbqoFqkdIWmgq24oJdiBIgwWHpAwDPjAbqc1Syu3bkahT4HoXz7eOwCVL2CprxpltBVqvEL4NlSVsajNi97rQYMvTcfQN20h4eyafjKuQnEhCBdxbzxooiJnujlDBZXoV5GhS6OghwYGKBAl2U7LLQepsV7TsYQw","CmRYAAAALMEQruQU30kz0BoigI_-P4i08eCRdwY-cJIY4md0jclkZiHByew6mljRShyy9RNRuv5oBbB-1WjMQmZbiVbGsAEkn5TYpQri557XfFB-mB7M9dlP1Xq4Voa2gHBlXziiEhCGtUOFlv9d1obAV2Zz5qTJGhTTzD4oxXuklB55v46t4kiz2Wb48w"],"placeid":"ChIJ4aVAUDBQzDERY36sbJHktuA"},{"name":"JS Auto Services Sdn Bhd","address":"20, Jalan Warden U1/76, Hicom-glenmarie Industrial Park, 40150 Shah Alam, Selangor, Malaysia","phone":"03-5513 4003","country":"Malaysia","city":"Shah Alam","zipcode":"40150","latitude":3.0806149,"longitude":101.5556568,"website":"http://www.facebook.com/JSAutoServicesGlenmarie","photos":["CmRYAAAAM50wEur8sNvurD7Oqsy6bPYnHGmDJUO3jocK3I1ScVSSDN66bVw_7IbhhOc3uYlXfy0Sm6vaRUveJFQZSQxzgkRvsxUfa9nfkHSy6gDtN8fOQk3CRlE9l4Rsriq8-EApEhBV000EWaPgvAKpdPuWetG6GhQd5FXcrCZUFadxXttNQ-yS36EBgw","CmRYAAAAdrGWtGroYCaoVm_1ip8aboAum0DcMqFeFhVR-u9xrNEggTdHyoaYBrWXMG1yrRaO7LBMonrGNEgawPD-S4Z_rpWeOShChzUbQ_Du_pLK_l_eUmFdxrJ2rAMRTmw4e7KPEhBawZXtSoEeQwrqF38O0z31GhQRcG_4hhMGuUJb29S-1XxzeF2wWQ","CmRYAAAA8wRmKaBbeyIDxAX5nQv9ewj7yrdVWmIn0ai0ibK4Vkh-WXATaHsvTumK3kEGstUzrYMibkblQtkAFLLlzh74Nc0yiTgi9oh8KEWGizdgXdZfii-MCPkxJ9AICG9Mi9i7EhAJzHBpXeqF6ag88MtFlMCiGhQZwH7l-XkV9iiKGEDGT3CK27w9Sw","CmRYAAAAk8gJy6EtmFj3CAYoY1M1qLbxr4t-MtD5nRSAYQyq59_EZrIjPvdRQm1NujLNXouQU2yF5YidrrMBpevveh1KHTH_bgUPQosm9qyj7f6NmY7SzBziRngtbxaGMmaD22oSEhBUt1I5Kj33lpzJlr-l5k8DGhTXAoLxkmEmIfiUoloMhDxcOo9_Kg","CmRYAAAA0JI84tGukknkFSGQeCOpn0SFC0IFy7yu3Gt6UXRJOXV5PnN9PpPN_Urm2M3KwNOMaFTnOTB9lEssysr6-lp_e1DR1YeQEhAnKlIm4Nxw_60d1fo5qEW9-cbhVxQMpsnQEhD30Jdr00euljq4ankxBBoVGhSOX0dkqBj-yElBaFvCm-yXqZW52w","CmRYAAAAPYaOnyERmh03E7E50kXhhL_a2BQhU8U-xgEUyp5rKeL-vRID2y4QyKONA7GUFWuczFNC85P16EDclynaorc6fNlVTyp6H_dTuSZFhnx6PmgABvFP_z2vxmyWCN4d3iR0EhCCNggBKxWtkNEjnLEdyr-7GhTVH_NGihke6AIUyIIHtJ_3jv2waA","CmRYAAAAPZxpYYFc2BCvzlxwjQh1J_56V8gZCqkgQOmtWQz5XmqxlDmIxj5m1yBfwxrSRSLe3yIg2lhf1ZBnNpt2pAjIwrXoJJsDqo36LYDTTAxJrHWHyf5i5_08lteM_S1x-06mEhAdXiia0FGeaq_03OjfM3HWGhQKyhtzGNrDqoDLroYJ-RTdaI3isQ","CmRYAAAA_qD3s7JF7u8VoMxdi695aK9Z4bRRhgmSAIwvWzVY7BENQfdd1wKZNaDe3UfnI_CDzR-sD9t-kr04ZLF8S1Jv45ZxqBCn0EwtA3mXit7zxX58BOe7BGZTWTIrQOcIxHJiEhAfWr4tWBh_W8LT0He3639IGhQ0lFyChVuCZtRr41UdXgPdXo9Hag","CmRYAAAAVofGsl_jRyoOKbIvQMZL1PFtA1qHlQK47KivQ7uq5NnuuRViXJ5I1GYNN7WXzHIWQco13syjv0L7EHzncF5AVUfk3VJ99b2KKMtaCo0BZoVhvnwOrthwkZFImHUX2WdPEhCf7VehoYObin9hxq1qh_aDGhQYJiD7B49zXRr5DbhvAkPfdqpNug","CmRYAAAAJTomFzCoKplCAY53A4lzbAij0wpl9IEzpqXSx7_FbcrMVkYrPm3hU95CHEc9Ogmg_Bc4sQy8wYYpLoRDQrRthTiw07hTfwKzXUm5jb63RrG3Qb6tpMhNpWAHvSiD1EFkEhAdzxpMYles78Xc-dI9l1c2GhTZVQSvQqeqfegqJWtaw63lm8xgeA"],"placeid":"ChIJY0ZhtqVNzDER4H-Zga_RrkI"},{"name":"OneStop Tyre & Services","address":"No 59, Jalan Equine 9, Taman Equine, 43300 Seri Kembangan, Selangor, Malaysia","phone":"03-8948 9373","country":"Malaysia","city":"Seri Kembangan","zipcode":"43300","latitude":2.997501,"longitude":101.6730689,"website":"http://onestoptyre.com.my/Contact.php","photos":["CmRYAAAAZexJSlqRQ7ELIsLr0WtA8oBO-MKFnlZgt9Jyuf8rQlxsubM14cOeTZYpVvwYXsRPD5P2AOddNU7LPH6xRa1Zyp8FhQqEjMiwjrBKDVzrR9tIbQ60eGnkKmALTbCUPsdjEhBbzFQIRrfLAXgMRbIW7P0_GhQQny9mHzd2a21Ud2CjfEOefOdPHw","CmRYAAAA74Hs-r85BosJ0e76baMoF0udGxqey1RPSPP5gggR1ro7V9x2oKazXoE33EwMgZ5KoXbxqH2ctJLDhCXz1xO251q6irWXYVvf9FrteUOESVb-xSq8OwfcwrLST2h9xCf_EhC3YtKua9ZIMfRUvIro8O5YGhShkxryYMufKIejYGZ1BwrmSixZsQ","CmRYAAAAkQoqYty53GuQtp6btsc3xm1fKEjpoTcjyNiuL7ykatVLG0bHsjCwKvdWDDaVUreYp1h8nWb3Bu-r-Gbkb-kkcKVsPTRT7fEZecSI8oG1BoLKgqJA5O0guymrABeWRvJHEhDMgx10vNrtP9jr0ZAZtFkuGhQOPKQ_LPq3tGxwHJKzNAYA2ksITA","CmRYAAAA6ahxE7hUDfAwD1OCcamCteCg2Fpl_5FFje2fj8N_VO8sVm64DsPyIpqn-_d1l76YnrAAxX5vij2y8rIPinwxbyqWBQ3zOGGG5T6ffKmCXn_vvfmdD1RAD1dEAN0tT0UTEhB1B2BKmZFXBemrn28I6w-eGhRcCR615IieDyNAugcEUhhUvhZxeg","CmRYAAAAcmxMsXBi454iyUJBmFlAhCY6qotm8TRi33b5v2q9IyI4IDcITB2KuF1O3uaoV_tyYq2lgOpxI4IjkclhRB1bq6IF1ZZr7cGFHp4yTmeEx-jHSWvGxphfD3ZdYU6n5m33EhDLEOa2TPLoQ5wgpH1ANaSaGhTPSMrqVmTNH9UihlsvuvkBDyz8jA","CmRYAAAAb37-mt6UCXVqDw-gTo781PoPRd1esogSKjcQM75PqAJ5e-YBxMx7OU5LxnJ3-jfk7kMwOuDBNeMiVQdCAcSzg7p7URCSwgHkvQqo815-KM4LwJeGdFa22AphMeCKzxISEhDHKNoajaEGNRzvyzitE0adGhTazDKQRgf0cVcI3mt_7Q2qiYruag","CmRYAAAAQwRnCQC6zQ89yh7c5ipxRdPiGAxKV-1exRkqua7EL7_wq9SrKeDnzO7Ijab27PyZOfrZ2Kx6Qnr6LpLXfZNM30HYIQY2cwSLJocajrx1fRDSdfu88bgekzsxpBU-8fxGEhBfAQVkoC_c76U-2joSCuNJGhToa0pX5WBhRUgL3T1Haj-qEul_Ag","CmRYAAAAp5IIo93wJaSf4MQB3o3gIHCltPKS4JgBiwfMjJPR-59572995GxsZdFMTnuVbIJ4u4KNC2sPs-6DrcyDZve4pnCnyM7RgYVid5Fs69-pWzIjoa-vJs9boLmGcYRwnzf9EhAC39aXT8Ppeg8pEOtQBRmMGhQpGanRB9d4Ismn3OKO9zPqbHYG9Q","CmRYAAAAS_lHIL_0n6MIW4670hLrkY1t5WfXRqSST2kt1Jeg9CFu6x5Qg7F7sgJIpVQL32J9uqJ1UnQ33WXBgNZfc1IoB_dRh85vvrINGXcFe3psgidWt1cElFfLePj96Nvb-0E9EhCzFN7mmAjjIemkVu1BoF3zGhRa8qyWNaKMkKyIxblafiSrPCkNeQ"],"placeid":"ChIJpXDnhQi1zTERV96ZpZs89-0"},{"name":"SRM UKHWAH HOLDING SDN BHD","address":"44, Jalan PUJ 3/6, Taman Puncak Jalil, 43300 Seri Kembangan, Selangor, Malaysia","phone":"03-8999 3944","country":"Malaysia","city":"Seri Kembangan","zipcode":"43300","latitude":3.018348,"longitude":101.677445,"website":"http://www.srmukhwah.com/","photos":["CmRYAAAAXlF8QEw_vuTgIky843ycCbMUFj6h0RhljSokgQP7U2_S7e9fNaGWbEym5FGhwQ32tYzq85QrzIJk5Pab8nxj1b1QffSP98X5A6b1Rjc2aumznooI7BAJQ43sUgYH7eNgEhB5BEmyXvYhC7EWisYtZCr4GhRTcUCfxHe4uDBVapxBLvGiS5mmxw","CmRYAAAA2nPT65VbUrUwyvhlZn1HLB7thjYUl6LxBc2xOqy29lxew4fs6om4W8zyJFWWbxhxVwUL72mqmVSl56e8mNahPIRJZeFylvaGipGc6F4lj7vDOKDZXRzTzOYHH-31YVWGEhBoZVzWDzDOPXEbgUbuetkzGhT4odpHrJv6o9a0iZdeVhHvM0SliQ","CmRYAAAAsenG7aawtiNuMOdPoB3jNkvLfhxICU4sYB0JEb4ZVLB-NZ1KYtyIPF7eVGjdEMLib9mqEE5oNpr5F7UHDGA57hP0_o5ETSvJusBWEn0tTs-UMHRSJaAvcU-dhKO2qG5dEhAOgCxtEbo5RNwwJSCwwrRTGhSCsYVzBgS9t_Sg5nLral2Ld9oJqQ","CmRYAAAATHZAm17NYdpKpvFloEgXte0WHxKSj9_G45IG_jQyUt6hMKOfGsdHJqyuvYsoC181sh5EV9CjgWpTWOjRocAMx_GLxx1BmyI44tR147iQVYISgLSy-M_h338AIrZcVVdkEhDFxfLWDLOPfWkLJUQuYwg5GhQ9EGs_4lNItcGFHUqdzI_wG9HUFQ","CmRYAAAAlaM9b9sJmw0-o5DACnXZGlYTt0UYdDa4LHKXrYQJS1moHi1tA6lPJCb8TG7g9pygPWqoj3Mg2YiM4KRTnLz1VLV5cmFGanZf-dOBzoJvLo3tZ3dhosX8MMISHpCFOOUkEhDjCUFpZzvkbu2qZJlRXBRUGhTHwO2Ipi1UOYb3OkRFFlT8L7zMwg","CmRYAAAALGphszXloCZUQhYPsUkEBU40rQS9lalWtoEmLJ1qB_-a5j3qJ1wer8ZpG-scant9SjsPm0q10O5EKynNB9om8NzOn75GtKAse9d6bO560_UzIrfaSuWDjKrMpRO-gbr_EhDi2oruxU69SYQRiia2AmCuGhT882yC_9enqU61mp_76bFjUsergg","CmRYAAAAjfiFiRfIsw7jzRjMV8aVaNLii-XxZAkDw4FIkkFnJo6lG4HCv21sEIqkTKVI3DEtw4iO5FWwoYeF4YhMKnqvlr4zXp0Ea6K1r10pEKlOFt96GD4YyWTAUQsAWqKCQxbYEhCCbxfQvmHXsOTiEXlpgT3rGhSsfh7sGrJmWXxo6b6uC2aM4hiouQ"],"placeid":"ChIJFxVdZDy1zTERgkU_aL75iGQ"},{"name":"Tek Ming Auto Service Sdn Bhd","address":"Jalan PJS 11/24, Bandar Sunway Industrial Park 46150 Petaling Jaya, Selangor, Bandar Sunway, 47500 Subang Jaya, Selangor, Malaysia","phone":"03-5621 1111","country":"Malaysia","city":"Subang Jaya","zipcode":"47500","latitude":3.066959999999999,"longitude":101.6023135,"website":"http://www.tekming.lelong.com.my/","photos":["CmRYAAAA0_OQWjsIm2vIw2rWdy2mVvbjn5qMlyQIrTxOiT7ka4INvoAygmxpTB2oAOLcCdWGuAy7OZF_deN2-IM-VH-Ewo7xERLwup64eocMIivDuVf2hV8KcR-05sgE9vMOGuAEEhCTLQalhRhpE3Oe8xp35Fm_GhTei6EhPPSUM16GC9rDPtG_18Zqpw","CmRYAAAAFYJms4SdjbnQMqqib4cWD8QWblq0pabFqbMReLnUVBpqVZNWyNuYhyT28Lmd5bTY_Ky4D7vgBdh8g4EZtM8rY1nyKyRbaoyH2fjQc0wQXdVpyLCOIJ7PE-1Sv9iFsff8EhCNCTq3w2KKCDqWx7nnx4QSGhSvw7iKV5wLmnLnPuL9U5Dnnh5_3A","CmRYAAAA1qorJ4FWAR7bSMJqtbHmdvvaFhuxun3eBtU4TxknK_RvZsNTScpTmO1NhfYeW8FD42kj9uP9I0LaWwHt6Ij5aM7YmXbO-ZbRIj7DHv674BS061V5iysFoVdeofMOuEz7EhCve1pP7EZzPdeh7mRhjlmvGhT1jBioaGO-5IePmdoKxvE33TW0ug","CmRYAAAASvPzKxf8PAKRs2R80enHrvBKJuXY-uZnpgoDBnIm74Y8h3_N2-bET4rMWTTy_6elb020y8qAbWf3ix6-vekMZ9KdhrB7vn-apSneTVMPUu0VS2FHHHBiSTK8__OabYluEhAjiT506vtRMRiH7UWUiFkcGhSQFFObu1EteVnfD0Yq1kdEKhYnHg","CmRYAAAAHPBvCnce468Jz4jJxrQZrAWRErm3t5kV9ArsJwObhnc-FPS8VnkvBiEg5WO170QigoS0LD4FxamXy_63h7sLaAh4Cnw1_Cmtx0FKzdBu9VPY7498jdt2k1K0iLhu9_b0EhAsW_mEJ_0ILQ8td9QmQUEwGhRFbRzd6t-g188cTpnIf4odB7xlHg","CmRYAAAAB0Avomw_9deG53JvHbYADpFBSlbUMVEpjymcn15yF6BGz2hJoxAUY6HSQBIe-3duPcbg-gdD59jxvDHwA4pDJ1KrjpZKCPbH1MWeWpgfQhn5-vWeLsVWAjxvBavM-r5zEhBNpvVYgV1kK1tc78LrV12xGhT54ee48ZByFLSy0-rwcMBf3jPnmw","CmRYAAAArofYQCIktwD7quPg6DyLov5XSLPKg2CN-Eb1fvYH7ZrJu5wGI23opwBeLAwTwgcD0y61YbWLGfsNr8hRt2LwbRMcwcj_wXxxHKptEBzEk7uk34McRSCIjqqa2kWnEhXwEhDfTlj42qGS60sHWO-ttia8GhQjaDgvqpB-ZyrsGfovcOEtJNoTOw","CmRYAAAA1SA8gZzIIrpxF2_lyuUkInCBxe2OT_QbNUNxDqzpZ7yN05i6DRTy8ysIbA-5AfTOFcuZn7DokYYPCTER87BxiUf1tMxU09h2_Ew-r1qsiCeqY9ZpCtYEvtRBLQA1Y24iEhAPaonSZQOyKPqphMXGQ1KOGhTjpfG-tA9KXt81UPqyRymcsaXCWw","CmRYAAAA5t5uBRYA2HeH8no28KVkh8O8OHYdAAf-yqNXD7nj1zpUfLHrXmh0n9U4EiwYYSKrQZv_kSGlzlJUmZu54y19GFbHqmYnS4XcB4Z5Z9nRQGVG9mdZj9jSt9nhGcwnHUWREhD89MQhzaqHJgFjV1PqvHujGhRYV45Q3ICkM8nI8E5Exg2dJIpxCw"],"placeid":"ChIJCeV5D49MzDER-d9qEotrtOw"},{"name":"V Care Motorsports","address":"1, Jalan Bandar Rawang 10, Pusat Bandar Rawang, 48000 Rawang, Selangor, Malaysia","phone":"03-6091 8893","country":"Malaysia","city":"Rawang","zipcode":"48000","latitude":3.319381100000001,"longitude":101.5775407,"website":"https://www.facebook.com/Vcaremotorsport/","photos":["CmRYAAAAkLHpDGjhLkyZL2pzANTbUJY-5Drkw8Wrk5V3RbiGpE3DAiM6Yo9X4yUO8RKD2i4xkRmDM7Tqt4HBLbmSxstY1v81JNhz2tvl0fg6vZTUEE4ld9EsNyBizVVsZrVEjszrEhAnt1deyZA4aQxazYUr1LfHGhQMLKkXP_D5A-BYXjQRAPnQJPSrDQ","CmRYAAAAGznVa9tfMTzOFQ-F09DjINR5gEmMPbZv33mxH2n2VxQvvIQA1eiV1pmy_goDTcn2J5_mzjPrP_h15eG7nVrwD_kKkMS2JyA0DcGTJSxNFMwwrCDNQ4UT_bvt4V3r7tGHEhAW5wIKbPelLi6LU_X508YlGhSTs3YC46KrbinmN1Z5UkoXvOtSBg","CmRYAAAAy0DogdACVHj4UO1zDb9Wn43znxwspf7ykDWe7h9JSOpAoOb2LWfp1BYLG2qNHCSmmmXJSKAHCEXR2I8ecYWNhkT_WazN5kK5ymXjgiq0Hi1oAWo3BLuojhx6lZVfHnspEhDlPT9li6Db5_QM8SsScTcWGhTLG_qSCVzgmAmQ1f2wy_W1KrekPw","CmRYAAAAHcjedQEy538kDiBVBvEKNc8f1o-AfeeXCMNh1If-EUltZq6jEPGI_rpX3uRDrc_oZCybbDsk3ELOnmA7T0GvhiFmATPid98hSqLsDk6lMY-hIMAkZbI9z33ZCu97EzSVEhBUdzOXfS0Mg4YJPv01etYgGhT7eSCfC2MEvKXslE3br9kIli4AAA"],"placeid":"ChIJO29FlFBCzDERjeIa4VwNPKc"}]}
